longitude, latitude, nom
2.24099, 48.89157, "[McCafé nv] 92 Puteaux (La Défense) ( -K- )"
4.85187, 50.13385, "[McDo nv] 08 Givet (D- -W)"
2.75051, 43.18741, "[McDo nv] 11 Lézignan-Corbières (D- -W)"
5.37949, 43.30299, "[McDo nv] 13 Marseille 01 (St Charles) ( -K-W)"
5.08925, 43.74060, "[McDo nv] 13 Sénas (D- -W)"
4.39205, 45.42286, "[McDo nv] 42 Saint Etienne (C.Cial Centre Deux) ( - -W)"
4.11068, 45.14592, "[McDo nv] 43 Yssingeaux (D- -W)"
2.37838, 47.78921, "[McDo nv] 45 Bonnée (Sully) (Rte de Sully s/Loire) (D- -W)"
3.25206, 44.87009, "[McDo nv] 48 Albaret-Ste-Marie (A75 Aire de la Lozère - 2 sens) (D- -W)"
3.63317, 50.26037, "[McDo nv] 59 Le Quesnoy (C.Cial de l'Avesnois) ( - - )"
4.85613, 45.76228, "[McDo nv] 69 Lyon 3 (C.Cial La Part-Dieu niv.1) ( -K-W)"
2.33500, 48.86120, "[McDo nv] 75 Paris 01 (Carrousel du Louvre) ( - -W)"
2.33211, 48.87324, "[McDo nv] 75 Paris 09 (Galeries Lafayette) ( - -W)"
2.38698, 48.89683, "[McDo nv] 75 Paris 19 (Villette) ( - - )"
2.34690, 50.16032, "[McDo nv] 80 Doullens (D- - )"
2.26674, 43.59198, "[McDo nv] 81 Castres (Siala) (D- -W)"
6.67160, 43.46740, "[McDo nv] 83 Puget-sur-Argens (A8 Aire du Canaver Nice>Aix) ( -K-W)"
5.88275, 48.18809, "[McDo nv] 88 Contrexéville (D- -W)"
2.36847, 48.72825, "[McDo nv] 91 Parray-Vieille-Poste (Orly Sud) ( - - )"
2.23903, 48.89086, "[McDo nv] 92 La Défense (Hélice-C.Cial 4 Temps) ( -K-W)"
2.23861, 48.89166, "[McDo nv] 92 Puteaux (La Défense - Gare RER) ( -K-W)"
2.41598, 48.85544, "[McDo nv] 93 Montreuil-sous-Bois (C.Cial Grande Porte) ( - -W)"
2.36270, 48.81170, "[McDo nv] 94 Le Kremlin-Bicètre (C.Cial Okabé) ( - - )"
2.37771, 48.97820, "[McDo nv] 95 Sarcelles (C.Cial Les Flanades) ( - - )"
2.37215, 48.98576, "[McDo nv] 95 Sarcelles (C.Cial My Place) ( - - )"
5.34897, 45.97730, "[McDo] 01 Ambérieu-en-Bugey (D- -W)"
5.70676, 45.75786, "[McDo] 01 Belley (D- -W)"
4.99135, 45.82109, "[McDo] 01 Beynost (D- -W)"
5.22839, 46.19590, "[McDo] 01 Bourg-en-Bresse (C.Cial Intermarché) ( - - )"
5.23683, 46.20757, "[McDo] 01 Bourg-en-Bresse (entrée 1)(D- -W)"
5.23586, 46.20711, "[McDo] 01 Bourg-en-Bresse (entrée 2)(D- -W)"
5.81132, 46.12750, "[McDo] 01 Châtillon-en-Michaille (D- -W)"
6.09486, 46.24335, "[McDo] 01 Ferney-Voltaire (D-K-W)"
5.19610, 45.90163, "[McDo] 01 Meximieux (D- -W)"
5.64336, 46.25419, "[McDo] 01 Oyonnax (D- - )"
6.07661, 46.29371, "[McDo] 01 Ségny (D- -W)"
5.99187, 46.22676, "[McDo] 01 Thoiry (D- -W)"
5.21376, 46.21487, "[McDo] 01 Viriat (D- -W)"
3.64655, 49.59034, "[McDo] 02 Chambry (D- -W)"
3.38290, 49.03674, "[McDo] 02 Château-Thierry (D- -W)"
3.64430, 49.90475, "[McDo] 02 Guise (D- -W)"
4.09153, 49.91089, "[McDo] 02 Hirson (C.Cial) (D- -W)"
3.61404, 49.54940, "[McDo] 02 Laon (C.Cial Carrefour) (D- -W)"
3.29163, 49.86349, "[McDo] 02 Saint Quentin (Cora) (D- -W)"
3.27008, 49.84894, "[McDo] 02 Saint Quentin (entrée 1)(D-K-W)"
3.26894, 49.84910, "[McDo] 02 Saint Quentin (entrée 2)(D-K-W)"
3.31389, 49.37035, "[McDo] 02 Soissons (C.Cial Cora) (D- -W)"
3.09889, 49.23971, "[McDo] 02 Villers-Cotterêts (D- -W)"
3.26111, 49.64358, "[McDo] 02 Viry-Noureuil (D- -W)"
3.40156, 46.12526, "[McDo] 03 Bellerive-sur-Allier (D- -W)"
2.56517, 46.33893, "[McDo] 03 Domérat (C.Cial Auchan) (D- -W)"
2.60243, 46.34608, "[McDo] 03 Montluçon (C.Cial Carrefour) (D- - )"
3.34337, 46.54048, "[McDo] 03 Moulins (C.Cial Carrefour) (D-K-W)"
3.29647, 46.29824, "[McDo] 03 Saint Pourçain-sur-Sioule (D- -W)"
2.58484, 46.37829, "[McDo] 03 Saint Victor (D- - )"
3.41589, 46.14227, "[McDo] 03 Vichy (Les Ailes) (D- -W)"
6.18695, 44.07725, "[McDo] 04 Digne-les-Bains (D- -W)"
5.79467, 43.82016, "[McDo] 04 Manosque (D- -W)"
5.96715, 44.14188, "[McDo] 04 Peipin (Parking Bricomarché) (D- -W)"
6.62813, 44.90362, "[McDo] 05 Briançon (D- -W)"
6.48250, 44.54684, "[McDo] 05 Embrun (Baratier) (D- -W)"
6.06372, 44.54483, "[McDo] 05 Gap (Rte de Marseille) (D- -W)"
6.10348, 44.56848, "[McDo] 05 Gap (Tokoro) (D- -W)"
7.08722, 43.60332, "[McDo] 06 Antibes (C.Cial Carrefour) ( - -W)"
7.08669, 43.60007, "[McDo] 06 Antibes (Nord) (D- -W)"
7.13137, 43.66287, "[McDo] 06 Cagnes-sur-Mer (entrée 1)(D- - )"
7.13083, 43.66208, "[McDo] 06 Cagnes-sur-Mer (entrée 2)(D- - )"
6.95586, 43.55180, "[McDo] 06 Cannes (La Bocca) (D- -W)"
7.01520, 43.55206, "[McDo] 06 Cannes (Les Allées) ( - -W)"
7.19979, 43.76605, "[McDo] 06 Gattières (D- -W)"
6.94106, 43.64555, "[McDo] 06 Grasse (Les 4 chemins) (D- -W)"
6.94550, 43.65307, "[McDo] 06 Grasse (Plan de Grasse) (D- -W)"
7.09012, 43.57409, "[McDo] 06 Juan-les-Pins (Antibes Ouest) (D- -W)"
6.93182, 43.53236, "[McDo] 06 Mandelieu-la-Napoule (C.Cial Géant) ( - -W)"
7.50560, 43.77507, "[McDo] 06 Menton ( - -W)"
6.97283, 43.61589, "[McDo] 06 Mougins (D- -W)"
7.26522, 43.70473, "[McDo] 06 Nice (Jean Médecin) ( - -W)"
7.18855, 43.72884, "[McDo] 06 Nice (Lingostière - C.Cial Carrefour) ( -K-W)"
7.26845, 43.70017, "[McDo] 06 Nice (Masséna) ( -K-W)"
7.26601, 43.69511, "[McDo] 06 Nice (Promenade) ( - -W)"
7.28942, 43.73137, "[McDo] 06 Nice (St André) (D- -W)"
7.28489, 43.70541, "[McDo] 06 Nice TNL ( -K-W)"
7.05698, 43.57684, "[McDo] 06 Vallauris (D- - )"
7.13419, 43.63297, "[McDo] 06 Villeneuve-Loubet (N7) (D-K-W)"
4.40470, 44.61630, "[McDo] 07 Aubenas (D- -W)"
4.68904, 45.25480, "[McDo] 07 Davézieux (D- -W)"
4.86470, 44.93933, "[McDo] 07 Granges-les-Valence (D- -W)"
4.61026, 44.71646, "[McDo] 07 Privas (D- -W)"
4.83676, 45.05327, "[McDo] 07 Tournon-sur-Rhône (D- -W)"
4.70618, 49.73996, "[McDo] 08 Charleville-Mézières (Croisette) ( - -W)"
4.37000, 49.52145, "[McDo] 08 Rethel (D- -W)"
4.92807, 49.69917, "[McDo] 08 Sedan (D- -W)"
4.75306, 49.73444, "[McDo] 08 Villers-Semeuse (D- -W)"
1.62429, 42.94893, "[McDo] 09 Foix (D- -W)"
1.62950, 43.10320, "[McDo] 09 Pamiers (D- -W)"
1.12662, 43.00592, "[McDo] 09 Saint Lizier (D- -W)"
4.10784, 48.32691, "[McDo] 10 Pont-Sainte-Marie (D- -W)"
4.04299, 48.27911, "[McDo] 10 Saint André-les-Vergers (D- -W)"
4.08699, 48.27330, "[McDo] 10 Saint Julien-les-Villas (Marques Avenue) (D- -W)"
4.13372, 48.29670, "[McDo] 10 Saint Parres-aux-Tertres (D- -W)"
4.07362, 48.30006, "[McDo] 10 Troyes (Gambetta) (D-K-W)"
2.35193, 43.21630, "[McDo] 11 Carcassonne (Centre - Gare) ( - -W)"
2.38508, 43.20749, "[McDo] 11 Carcassonne (Europe) (D- -W)"
2.31136, 43.20615, "[McDo] 11 Carcassonne (Salvaza - C.Cial Casino) (D- -W)"
1.95550, 43.30024, "[McDo] 11 Castelnaudary (D- -W)"
2.21978, 43.07426, "[McDo] 11 Limoux (D- -W)"
3.02856, 43.18151, "[McDo] 11 Narbonne (Bonne Source) (D-K-W)"
2.99243, 43.17510, "[McDo] 11 Narbonne (Espace Liberté) (D- -W)"
2.96592, 43.03053, "[McDo] 11 Sigean (D- -W)"
3.08226, 44.09108, "[McDo] 12 Millau (D- -W)"
2.59191, 44.37247, "[McDo] 12 Onet-le-Château (D- -W)"
2.57056, 44.36063, "[McDo] 12 Rodez (D- -W)"
2.01198, 44.36025, "[McDo] 12 Villefranche-de-Rouergue (D- -W)"
5.43381, 43.51808, "[McDo] 13 Aix-en-Provence (D- -W)"
4.63620, 43.66663, "[McDo] 13 Arles (Fourchon) (D- -W)"
5.56370, 43.29330, "[McDo] 13 Aubagne (Centre) (D- -W)"
5.36586, 43.41965, "[McDo] 13 Cabriès (Marseille Plan de Campagne - C.Cial Barnéoud) (D- -W)"
5.13133, 43.39413, "[McDo] 13 Châteauneuf-les-Martigues (D- -W)"
4.85242, 43.88792, "[McDo] 13 Châteaurenard (D- - )"
5.60882, 43.46423, "[McDo] 13 Fuveau (D- -W)"
5.46510, 43.46540, "[McDo] 13 Gardanne (C.Cial Champion) (D- -W)"
4.98034, 43.49793, "[McDo] 13 Istres (Les Cognets - C.Cial Géant) (D- -W)"
4.96430, 43.51950, "[McDo] 13 Istres (Les Craux - C.Cial Leclerc) (D- -W)"
5.60361, 43.18887, "[McDo] 13 La Ciotat (D- -W)"
5.59988, 43.38774, "[McDo] 13 La Destrousse (D- -W)"
5.39750, 43.50639, "[McDo] 13 La Pioline (Aix Les Milles) ( - -W)"
5.37832, 43.48712, "[McDo] 13 Les Milles (Aix Ampère) (D- -W)"
5.36024, 43.41324, "[McDo] 13 Les Pennes-Mirabeau (D- -W)"
5.38091, 43.29764, "[McDo] 13 Marseille 01 (Canebière) ( - -W)"
5.37262, 43.29361, "[McDo] 13 Marseille 01 (Quai Rive Neuve) ( -K-W)"
5.37853, 43.29312, "[McDo] 13 Marseille 01 (St Ferreol) ( - -W)"
5.37498, 43.30129, "[McDo] 13 Marseille 01 (Ste Barbe - Porte d'Aix) ( - -W)"
5.37469, 43.29415, "[McDo] 13 Marseille 01 (Vieux Port) ( - -W)"
5.36765, 43.30433, "[McDo] 13 Marseille 02 (République Joliette) ( -K-W)"
5.40111, 43.30306, "[McDo] 13 Marseille 04 (Blancarde) (D- -W)"
5.40000, 43.29556, "[McDo] 13 Marseille 05 (Chave) (D- -W)"
5.38333, 43.28694, "[McDo] 13 Marseille 06 (Rue de Rome) ( - -W)"
5.38962, 43.24942, "[McDo] 13 Marseille 08 (Bonneveine - C.Cial Carrefour) ( -K- )"
5.40095, 43.27230, "[McDo] 13 Marseille 09 (Ste Marguerite) (D- -W)"
5.48245, 43.29415, "[McDo] 13 Marseille 11 (La Valentine) (D- -W)"
5.44256, 43.29603, "[McDo] 13 Marseille 12 (CC Les Caillols)"
5.38823, 43.33110, "[McDo] 13 Marseille 14 (St Barthélemy) (D- -W)"
5.35002, 43.36444, "[McDo] 13 Marseille 15 (C.Cial Grand Littoral bas) ( - -W)"
5.05430, 43.42170, "[McDo] 13 Martigues (D- -W)"
5.00000, 43.58769, "[McDo] 13 Miramas (D- -W)"
5.00090, 43.41220, "[McDo] 13 Port-de-Bouc (D- -W)"
5.22266, 43.48517, "[McDo] 13 Rognac (D- -W)"
5.22951, 43.41804, "[McDo] 13 Saint Victoret (Marignane) (D- -W)"
5.09938, 43.63813, "[McDo] 13 Salon-de-Provence (Gambetta) ( - -W)"
5.10065, 43.63193, "[McDo] 13 Salon-de-Provence (L'Arceau) (D- -W)"
5.11254, 43.62878, "[McDo] 13 Salon-de-Provence (Sud) (D- -W)"
5.26360, 43.43094, "[McDo] 13 Vitrolles (Bastide Blanche) (D- -W)"
-0.70111, 49.28427, "[McDo] 14 Bayeux (D- -W)"
-0.42378, 49.16392, "[McDo] 14 Bretteville-sur-Odon ( - -W)"
-0.36158, 49.18320, "[McDo] 14 Caen (Centre) ( - -W)"
-0.36483, 49.20982, "[McDo] 14 Caen (Cote de Nacre - C.Cial Carrefour) ( - -W)"
-0.36218, 49.21010, "[McDo] 14 Caen (Cote de Nacre) (D- -W)"
-0.10298, 49.27580, "[McDo] 14 Dives-sur-Mer (D- -W)"
-0.20754, 48.91323, "[McDo] 14 Falaise (D- -W)"
-0.32730, 49.20630, "[McDo] 14 Hérouville-Saint-Clair (C.Cial St-Clair) ( - -W)"
-0.33870, 49.14667, "[McDo] 14 Ifs (D- - )"
-1.09989, 49.31210, "[McDo] 14 Isigny-sur-Mer (D- -W)"
0.25165, 49.41132, "[McDo] 14 La Rivière-Saint-Sauveur (D- -W)"
0.26335, 49.14392, "[McDo] 14 Lisieux (D- -W)"
-0.29676, 49.16377, "[McDo] 14 Mondeville (C.Cial Mondeville 2) (D- -W)"
-0.17652, 49.11751, "[McDo] 14 Moult (D- -W)"
-0.26115, 49.26812, "[McDo] 14 Ouistreham (C.Cial Champion) (D- -W)"
0.09672, 49.34700, "[McDo] 14 Touques (D- -W)"
-0.88292, 48.84695, "[McDo] 14 Viré (D- - )"
3.06310, 45.03817, "[McDo] 15 Andelat (D-K-W)"
2.44136, 44.91366, "[McDo] 15 Aurillac (D- -W)"
0.18113, 45.69385, "[McDo] 16 Champniers (C.Cial Géant) (D- -W)"
-0.32111, 45.69056, "[McDo] 16 Cognac (D- -W)"
0.11082, 45.62455, "[McDo] 16 La Couronne (D- -W)"
0.21248, 45.63294, "[McDo] 16 Soyaux (D- -W)"
-1.10278, 46.11194, "[McDo] 17 Angoulins (C.Cial Carrefour) (D- -W)"
-1.15325, 46.14818, "[McDo] 17 La Rochelle (Aquarium-Les Minimes) ( - -W)"
-1.16893, 46.17508, "[McDo] 17 Lagord (C.Cial Leclerc) (D- -W)"
-1.11917, 45.83028, "[McDo] 17 Marennes (D- -W)"
-0.56329, 45.57412, "[McDo] 17 Pons (D- -W)"
-0.97740, 45.95880, "[McDo] 17 Rochefort (D- -W)"
-1.00259, 45.62324, "[McDo] 17 Royan (D- -W)"
-0.52971, 45.95497, "[McDo] 17 Saint Jean-d'Angély (D- -W)"
-0.66289, 45.74005, "[McDo] 17 Saintes (D- -W)"
2.36411, 47.06046, "[McDo] 18 Bourges (Aeroport) (D- -W)"
2.42152, 47.09259, "[McDo] 18 Bourges (C.Cial Carrefour) (D- -W)"
2.49173, 46.73379, "[McDo] 18 Saint Amand-Montrond (Parking Intermarché) (D- -W)"
2.37768, 47.11182, "[McDo] 18 Saint Doulchard (C.Cial Géant) (D- -W)"
2.09147, 47.23936, "[McDo] 18 Vierzon (C.Cial Carrefour) (D- -W)"
1.48181, 45.14665, "[McDo] 19 Brive-la-Gaillarde (D- -W)"
1.56092, 45.16899, "[McDo] 19 Malemort-sur-Corrèze (D- -W)"
1.76083, 45.25361, "[McDo] 19 Tulle (D- -W)"
2.30050, 45.53604, "[McDo] 19 Ussel (D- -W)"
4.85651, 47.00074, "[McDo] 21 Beaune (Levernois) (D- -W)"
5.11477, 47.30393, "[McDo] 21 Chevigny-Saint-Sauveur (D- -W)"
4.56410, 47.87888, "[McDo] 21 Châtillon-sur-Seine (D- -W)"
5.03715, 47.32233, "[McDo] 21 Dijon (Centre) ( -K-W)"
5.06386, 47.31529, "[McDo] 21 Dijon (Gabriel) ( - -W)"
5.06609, 47.33930, "[McDo] 21 Dijon (Nord-Est) (D- -W)"
5.04899, 47.36052, "[McDo] 21 Dijon (Parc Valmy) (D- -W)"
5.03349, 47.33682, "[McDo] 21 Fontaine-lès-Dijon (D- -W)"
5.01638, 47.28025, "[McDo] 21 Marsannay-la-Cote (D- -W)(24/24)"
4.56710, 47.25114, "[McDo] 21 Pouilly-en-Auxois (D- -W)"
5.09250, 47.31306, "[McDo] 21 Quetigny (D-K-W)"
-3.16576, 48.56289, "[McDo] 22 Guingamp (C.Cial Carrefour) ( - - )"
-2.49807, 48.45412, "[McDo] 22 Lamballe (D- -W)"
-2.72442, 48.49459, "[McDo] 22 Langueux (D- - )"
-3.46165, 48.74614, "[McDo] 22 Lannion (D- - )"
-2.73263, 48.18072, "[McDo] 22 Loudéac (D- -W)"
-3.03932, 48.77137, "[McDo] 22 Paimpol (D- - )"
-2.75683, 48.53378, "[McDo] 22 Plérin (D- - )"
-2.07360, 48.44791, "[McDo] 22 Quévert (Quévert-Dinan) (D- -W)"
1.88515, 46.16816, "[McDo] 23 Guéret (C.Cial Carrefour) (D- -W)"
0.44885, 44.83523, "[McDo] 24 Bergerac (La Cavaille) (D- -W)"
0.53327, 44.85004, "[McDo] 24 Creysse (Creysse-Bergerac) (D- -W)"
0.66068, 45.19486, "[McDo] 24 Marsac-sur-l'Isle (C.Cial Auchan) (D- -W)"
1.21068, 44.90243, "[McDo] 24 Sarlat-la-Canéda (D- -W)"
1.32507, 45.12854, "[McDo] 24 Terrasson-Lavilledieu (D- -W)"
0.76550, 45.18946, "[McDo] 24 Trélissac (Périgueux - C.Cial La Feuilleraie) (D- -W)"
6.84357, 47.48718, "[McDo] 25 Audincourt (D- -W)"
5.94587, 47.21882, "[McDo] 25 Besançon (Châteaufarine) (D- -W)"
5.99250, 47.27639, "[McDo] 25 Ecole-Valentin (Besançon-Ecole-Valentin) (D- -W)"
6.81330, 47.50310, "[McDo] 25 Montbéliard (D- -W)"
6.33370, 46.91028, "[McDo] 25 Pontarlier (D- -W)"
4.78231, 44.51453, "[McDo] 26 Allan (A7 Aire de Montélimar Est Marseille>Lyon) ( -K- )"
4.78209, 44.51589, "[McDo] 26 Allan (A7 Aire de Montélimar Ouest Lyon>Marseille par passerelle) ( -K- )"
5.05560, 45.03800, "[McDo] 26 Bourg-de-Péage (D- -W)"
4.88223, 44.96101, "[McDo] 26 Bourg-lès-Valence (D- -W)"
4.83676, 44.75931, "[McDo] 26 Loriol-sur-Drome (D- -W)"
4.74468, 44.53158, "[McDo] 26 Montélimar (D- -W)"
4.75694, 44.56785, "[McDo] 26 Montélimar (Nord) (D- -W)"
4.69331, 44.36852, "[McDo] 26 Pierrelatte (D- -W)"
4.87640, 45.02044, "[McDo] 26 Pont-de-l'Isère (A7 Aire de Latitude 45 Marseille>Lyon) ( - - )"
4.87477, 45.01794, "[McDo] 26 Pont-de-l'Isère (A7 Aire de Pont-de-l'Isère Lyon>Marseille) ( - -W)"
5.07796, 45.05034, "[McDo] 26 Romans-sur-Isère (D- -W)"
4.94026, 44.95897, "[McDo] 26 Saint Marcel-lès-Valence (D- - )"
4.91471, 44.94052, "[McDo] 26 Valence (D- -W)"
4.89093, 44.92959, "[McDo] 26 Valence (Victor Hugo) ( -K-W)"
0.60384, 49.08905, "[McDo] 27 Bernay (D- -W)"
1.14444, 49.02889, "[McDo] 27 Evreux (Cinéma) (D- - )"
1.16884, 49.01135, "[McDo] 27 Evreux (D- -W)"
1.34600, 49.15763, "[McDo] 27 Gaillon (D- - )"
1.79059, 49.28456, "[McDo] 27 Gisors (D- -W)"
0.52145, 49.34923, "[McDo] 27 Pont-Audemer (D- -W)"
1.18397, 49.24885, "[McDo] 27 Val-de-Reuil (D- - )"
0.92015, 48.73233, "[McDo] 27 Verneuil-sur-Arvre (D- -W)"
1.46368, 49.09698, "[McDo] 27 Vernon (D- -W)"
1.45970, 48.86331, "[McDo] 28 Anet (D- -W)"
1.48424, 48.44429, "[McDo] 28 Chartres (Centre ville) ( - - )"
1.51827, 48.44823, "[McDo] 28 Chartres (La Madeleine) ( - - )"
1.33456, 48.08905, "[McDo] 28 Châteaudun (D- -W)"
1.36100, 48.73452, "[McDo] 28 Dreux ( - -W)"
1.34616, 48.74650, "[McDo] 28 Dreux (Ouest) (D- -W)"
1.67672, 48.59362, "[McDo] 28 Hanches (Epernon) (D- -W)"
1.51363, 48.42814, "[McDo] 28 Le Coudray (Chartres Rocade) (D- -W)"
1.43859, 48.44651, "[McDo] 28 Mainvilliers (D- -W)"
0.80090, 48.32790, "[McDo] 28 Nogent-le-Rotrou (D- -W)"
-4.48236, 48.39294, "[McDo] 29 Brest ( -K-W)"
-4.46818, 48.41828, "[McDo] 29 Brest (Gouesnou) (D- -W)"
-4.52801, 48.38753, "[McDo] 29 Brest (Le Point du Jour) (D- -W)"
-3.55235, 48.27724, "[McDo] 29 Carhaix-Plouguer (D- - )"
-4.05188, 48.21651, "[McDo] 29 Chateaulin (D- -W)"
-3.91533, 47.89008, "[McDo] 29 Concarneau (D- -W)"
-4.34757, 48.08920, "[McDo] 29 Douarnenez (D- -W)"
-4.57326, 48.42771, "[McDo] 29 Guilers (D- -W)"
-4.43688, 48.41637, "[McDo] 29 Guipavas (C.Cial les Portes de Brest) (D-K-W)"
-4.26395, 48.44984, "[McDo] 29 Landerneau (D- -W)"
-4.05306, 48.51513, "[McDo] 29 Landivisiau (D- - )"
-4.40670, 48.39923, "[McDo] 29 Le Relecq-Kerhuon (D- -W)"
-3.81548, 48.58805, "[McDo] 29 Morlaix (D- - )"
-4.21814, 47.88237, "[McDo] 29 Pont-l'Abbé (D- -W)"
-4.08712, 48.01696, "[McDo] 29 Quimper (Gourvily) (D- -W)"
-4.09537, 47.97875, "[McDo] 29 Quimper (Kerustum) (D- -W)"
-3.58929, 47.86875, "[McDo] 29 Quimperlé (D- -W)"
4.20482, 43.69245, "[McDo] 30 Aimargues (D- -W)"
4.07985, 44.12714, "[McDo] 30 Alès (Centre) (D- -W)"
4.09875, 44.10879, "[McDo] 30 Alès (D-K-W)"
4.09774, 44.14912, "[McDo] 30 Alès (Nord) (D- -W)"
4.61873, 44.17694, "[McDo] 30 Bagnols-sur-Cèze (D- -W)"
4.61513, 43.81685, "[McDo] 30 Beaucaire (D- -W)"
4.14967, 43.51679, "[McDo] 30 Le Grau-du-Roi ( - -W)"
4.74810, 43.95900, "[McDo] 30 Les Angles (D- - )"
4.29933, 43.78371, "[McDo] 30 Milhaud (D- -W)"
4.36442, 43.81104, "[McDo] 30 Nîmes (C.Cial Cap Costières) (D- -W)"
4.40288, 43.85727, "[McDo] 30 Nîmes (Courbessac - C.Cial Nîmes Soleil) (D- -W)"
4.35894, 43.83946, "[McDo] 30 Nîmes (Les Halles) ( - -W)"
4.36442, 43.82200, "[McDo] 30 Nîmes (Mas Carbonnel) (D- -W)"
4.34844, 43.81546, "[McDo] 30 Nîmes (Ville Active) (D-K-W)"
4.57571, 43.93966, "[McDo] 30 Remoulins (D- - )"
1.36747, 43.64874, "[McDo] 31 Blagnac (Grand Noble) (D- -W)"
1.37570, 43.63709, "[McDo] 31 Blagnac (Toulouse Blagnac) (D- -W)"
1.49660, 43.52054, "[McDo] 31 Castanet-Tolosan (D- -W)"
1.07651, 43.23621, "[McDo] 31 Cazères (D- - )"
1.33062, 43.61320, "[McDo] 31 Colomiers (D- -W)"
1.30516, 43.60721, "[McDo] 31 Colomiers (Perget) (D- -W)"
1.35120, 43.52938, "[McDo] 31 Cugnaux (D- -W)"
0.75984, 43.11364, "[McDo] 31 Estancarbon (D- -W)"
1.40487, 43.68690, "[McDo] 31 Fenouillet (D- -W)"
1.47181, 43.64591, "[McDo] 31 L'Union (Toulouse L'Union) (D- -W)"
1.50194, 43.55000, "[McDo] 31 Labège (Toulouse Labège) (D-K-W)"
1.31130, 43.57100, "[McDo] 31 Plaisance-du-Touch (D- -W)"
1.40050, 43.53523, "[McDo] 31 Portet-sur-Garonne (Toulouse Portet Drive) (D- -W)"
1.98283, 43.45210, "[McDo] 31 Revel ( - - )"
1.37046, 43.51120, "[McDo] 31 Roques-sur-Garonne (D- -W)"
1.51272, 43.66786, "[McDo] 31 Rouffiac-Tolosan (C.Cial Leclerc) (D- -W)"
1.51460, 43.56468, "[McDo] 31 Saint Orens-de-Gameville (D- -W)"
1.43249, 43.66176, "[McDo] 31 Toulouse (Aucamville) (D- -W)"
1.44358, 43.60497, "[McDo] 31 Toulouse (Capitole) ( - -W)"
1.43543, 43.61076, "[McDo] 31 Toulouse (Compans) ( - -W)"
1.48305, 43.60628, "[McDo] 31 Toulouse (Jean Chaubet) (D- -W)"
1.41918, 43.59467, "[McDo] 31 Toulouse (Koenigs) (D- -W)"
1.49426, 43.57329, "[McDo] 31 Toulouse (Montaudran) (D- -W)"
1.39472, 43.60792, "[McDo] 31 Toulouse (Purpan) (D- -W)"
1.46810, 43.55401, "[McDo] 31 Toulouse (Rangueil) (D- -W)"
1.39237, 43.56749, "[McDo] 31 Toulouse (Reynerie) (D- -W)"
1.41920, 43.54972, "[McDo] 31 Toulouse (Rte d'Espagne) (D- -W)"
1.44839, 43.60531, "[McDo] 31 Toulouse (Wilson) ( - -W)"
1.35982, 43.58942, "[McDo] 31 Tournefeuille (D- -W)"
1.70384, 43.39945, "[McDo] 31 Villefranche-de-Lauragais (D- -W)"
0.59406, 43.65027, "[McDo] 32 Auch (D- -W)"
1.07230, 43.60346, "[McDo] 32 L'Isle-Jourdain (D- -W)"
-1.11287, 44.77142, "[McDo] 33 Arès (D- -W)"
-0.95778, 44.63694, "[McDo] 33 Biganos (D- -W)"
-0.62423, 44.91141, "[McDo] 33 Blanquefort (D- -W)"
-0.57295, 44.81396, "[McDo] 33 Bordeaux (Barrière de Toulouse) (D- -W)"
-0.56540, 44.87010, "[McDo] 33 Bordeaux (Port Autonome) (D- -W)"
-0.59658, 44.82937, "[McDo] 33 Bordeaux (Stade) (D- -W)"
-0.57417, 44.84083, "[McDo] 33 Bordeaux (Ste Catherine Centre) ( -K-W)"
-0.55755, 44.84218, "[McDo] 33 Bordeaux (Thiers) (D- -W)"
-0.57260, 44.83110, "[McDo] 33 Bordeaux (Victoire) ( - -W)"
-0.53119, 44.79339, "[McDo] 33 Bègles (C.Cial Carrefour) (D-K-W)"
-0.52938, 44.72347, "[McDo] 33 Cadaujac (D-K-W)"
-0.38010, 45.11071, "[McDo] 33 Cavignac (D- -W)"
-0.66500, 44.89222, "[McDo] 33 Eysines (D- -W)"
-0.51953, 44.82119, "[McDo] 33 Floirac (D- -W)"
-0.06958, 44.58348, "[McDo] 33 La Réole (parking Intermarché)"
-1.13608, 44.61635, "[McDo] 33 La Teste-de-Buch (Bassin Arcachon) (D- -W)"
-1.15726, 44.64556, "[McDo] 33 La Teste-de-Buch (Océan) (D- -W)"
-0.25472, 44.54306, "[McDo] 33 Langon (C.Cial Leclerc) (D- -W)"
-0.59362, 44.85383, "[McDo] 33 Le Bouscat (Bordeaux Médoc) ( -K-W)"
-0.62921, 44.95571, "[McDo] 33 Le Pian-Médoc (D- -W)"
-0.93972, 45.31083, "[McDo] 33 Lesparre-Médoc (D- -W)"
-0.21833, 44.90111, "[McDo] 33 Libourne (C.Cial Carrefour) (D- -W)"
-0.23968, 44.92782, "[McDo] 33 Libourne (Nord - C.Cial Leclerc) (D- -W)"
-0.51417, 44.86599, "[McDo] 33 Lormont (Bordeaux Lormont) (D- -W)(24/24)"
-0.42870, 44.87455, "[McDo] 33 Montussan (D- -W)"
-0.65292, 44.83040, "[McDo] 33 Mérignac (Bordeaux Mérignac) (D- -W)"
-0.65336, 44.85634, "[McDo] 33 Mérignac (D- -W)"
-0.63655, 44.78628, "[McDo] 33 Pessac (Bordeaux Pessac) (D- -W)"
-0.36740, 44.65661, "[McDo] 33 Podensac (C.Cial Super U) (D- -W)"
0.17876, 44.84508, "[McDo] 33 Port-Sainte-Foy-et-Ponchapt (D- -W)"
-0.43661, 45.00534, "[McDo] 33 Saint André-de-Cubzac (D- -W)"
-0.64177, 45.12934, "[McDo] 33 Saint Martin-la-Caussade (D- -W)"
-0.69226, 44.88448, "[McDo] 33 Saint Médard-en-Jalles (Bordeaux St Médard) (D- -W)"
-0.48974, 44.90783, "[McDo] 33 Sainte Eulalie (Bordeaux Ste Eulalie (D- -W)"
-0.59585, 44.80018, "[McDo] 33 Talence (Université) (D- -W)"
-0.57084, 44.77799, "[McDo] 33 Villenave-d'Ornon (D- -W)"
3.47599, 43.29773, "[McDo] 34 Agde (Cayret - C.Cial Le Grand Cap) (D- -W)"
3.48484, 43.30418, "[McDo] 34 Agde (D- -W)"
4.00016, 43.65510, "[McDo] 34 Baillargues (La Biste) (D- -W)"
3.69274, 43.46112, "[McDo] 34 Balaruc-le-Vieux (D- -W)"
3.12916, 43.59496, "[McDo] 34 Bédarieux (D- -W)"
3.25039, 43.34838, "[McDo] 34 Béziers (Frigoulas) (D- -W)"
3.43723, 43.62247, "[McDo] 34 Clermont-l'Hérault (Hyper U) (D- -W)"
3.16869, 43.30955, "[McDo] 34 Colombiers (D- -W)"
3.90222, 43.66007, "[McDo] 34 Jacou (D- -W)"
3.80021, 43.61436, "[McDo] 34 Juvignac (D- -W)"
3.92621, 43.58352, "[McDo] 34 Lattes (Drive)(C.Cial Carrefour Parking) (D- -W)"
3.93102, 43.58216, "[McDo] 34 Lattes (Mall)(C.Cial Carrefour Galerie marchande) ( - -W)"
3.94290, 43.64143, "[McDo] 34 Le Crès (Montpellier Le Crès) (D- -W)"
4.15197, 43.68281, "[McDo] 34 Lunel (C.Cial Les Portes de la mer) (D- -W)"
3.83856, 43.62565, "[McDo] 34 Montpellier (Alco) (D- -W)"
3.87927, 43.60857, "[McDo] 34 Montpellier (Comédie) ( - -W)"
3.85599, 43.58914, "[McDo] 34 Montpellier (Croix d'Argent) (D- -W)"
3.88066, 43.60528, "[McDo] 34 Montpellier (Gare) ( - -W)"
3.91654, 43.60212, "[McDo] 34 Montpellier (Odysseum) (D- -W)"
3.88896, 43.58602, "[McDo] 34 Montpellier (Près d'Arènes) (D- -W)"
3.41890, 43.45257, "[McDo] 34 Pézenas (D- -W)"
3.83863, 43.56984, "[McDo] 34 Saint Jean-de-Védas (D- -W)"
3.70809, 43.41042, "[McDo] 34 Sète (D- -W)"
3.28339, 43.26957, "[McDo] 34 Sérignan (D- -W)"
4.13233, 43.71223, "[McDo] 34 Villetelle (A9 Aire d'Ambrussum) ( - -W)"
-1.68960, 47.85329, "[McDo] 35 Bain-de-Bretagne (D- -W)"
-1.73967, 48.05530, "[McDo] 35 Bruz (Ker-Lann) (D- -W)"
-1.88051, 48.05909, "[McDo] 35 Bréal-sous-Monfort (D- -W)"
-1.61995, 48.11356, "[McDo] 35 Cesson-Sévigné (Rennes Cesson) (D-K-W)"
-1.18065, 48.34562, "[McDo] 35 Fougères (D- -W)"
-1.73080, 48.20260, "[McDo] 35 La Mezière (Cap Malo) (D-K-W)"
-1.50234, 48.22488, "[McDo] 35 Liffré (D- -W)"
-1.76828, 48.14009, "[McDo] 35 Pacé (Rennes Pacé) (D- -W)"
-1.91937, 48.17565, "[McDo] 35 Pleumeleuc (D- -W)"
-2.05937, 48.61406, "[McDo] 35 Pleurtuit (D- -W)"
-2.06861, 47.66972, "[McDo] 35 Redon (D-K-W)"
-1.67618, 48.08331, "[McDo] 35 Rennes (Alma) (D-K-W)"
-1.71311, 48.10435, "[McDo] 35 Rennes (C.Cial Cleunay) (D- -W)"
-1.68090, 48.10510, "[McDo] 35 Rennes (C.Cial Colombia) ( -K-W)"
-1.70871, 48.11597, "[McDo] 35 Rennes (Champeaux) (D- -W)"
-1.64045, 48.13024, "[McDo] 35 Rennes (Longchamps) (D- -W)"
-1.69017, 48.13208, "[McDo] 35 Rennes (St Grégoire) (D-K-W)"
-1.97579, 48.60399, "[McDo] 35 Saint Jouan-des-Guerets (D- -W)"
-1.98976, 48.63487, "[McDo] 35 Saint Malo (La Découverte) (D- -W)"
-1.46637, 48.10310, "[McDo] 35 Servon-sur-Vilaine (D- -W)"
-1.62159, 48.06319, "[McDo] 35 Vern-sur-Seiche (D- -W)"
-1.20962, 48.12041, "[McDo] 35 Vitré (D-K-W)"
1.69757, 46.80501, "[McDo] 36 Châteauroux (D- -W)"
1.70336, 46.85202, "[McDo] 36 Déols (Châteauroux nord) (D- -W)"
2.00648, 46.95267, "[McDo] 36 Issoudun (D- -W)"
1.65721, 46.78582, "[McDo] 36 Saint Maur (Cap Sud) ( - - )"
1.01769, 47.40368, "[McDo] 37 Amboise (D- -W)"
0.70611, 47.33139, "[McDo] 37 Chambray-lès-Tours (D- -W)"
0.26252, 47.17862, "[McDo] 37 Chinon (D- -W)"
0.65596, 47.34764, "[McDo] 37 Joué-lès-Tours (D- -W)"
0.65836, 47.37590, "[McDo] 37 La Riche (C.Cial Géant) (D- -W)"
0.98371, 47.13124, "[McDo] 37 Loches (D- -W)"
0.69290, 47.38950, "[McDo] 37 Tours (Centre ville) ( - -W)"
0.67573, 47.36505, "[McDo] 37 Tours (Les Deux Lions) (D-K-W)"
0.70270, 47.42570, "[McDo] 37 Tours (Nord) (D-K-W)"
5.25659, 45.58936, "[McDo] 38 Bourgoin-Jallieu (D- -W)"
4.81011, 45.57436, "[McDo] 38 Chasse-sur-Rhône (D- - )"
5.30501, 45.14396, "[McDo] 38 Chatte (D- -W)"
5.71732, 45.15081, "[McDo] 38 Echirolles (Centre Ville) (D- -W)"
5.69444, 45.14944, "[McDo] 38 Echirolles (Comboire) (D-K-W)"
5.67477, 45.19653, "[McDo] 38 Fontaine (C.Cial Géant) (D- -W)"
5.72611, 45.19032, "[McDo] 38 Grenoble (Centre) ( - -W)"
5.72864, 45.15815, "[McDo] 38 Grenoble (Grand Place) ( -K-W)"
5.71776, 45.18306, "[McDo] 38 Grenoble (L'Aigle) (D- -W)"
5.78293, 44.93351, "[McDo] 38 La Mure ( - - )"
5.13307, 45.64357, "[McDo] 38 La Verpillière (D- -W)"
5.57752, 45.53709, "[McDo] 38 Les Abrets (D- -W)"
5.76334, 45.20332, "[McDo] 38 Meylan (Grenoble Meylan) ( - -W)"
5.33466, 45.35435, "[McDo] 38 Saint Etienne-de-Saint-Geoirs (D-K-W)"
5.42877, 45.56828, "[McDo] 38 Saint Jean-de-Soudain (D- -W)"
5.76573, 45.18503, "[McDo] 38 Saint Martin-d'Hères (Grenoble St Martin) (D-K-W)"
4.80542, 45.34087, "[McDo] 38 Salaise-sur-Sanne (D- -W)"
5.18652, 45.74966, "[McDo] 38 Tignieu (D- -W)"
4.87303, 45.53424, "[McDo] 38 Vienne (D-K-W)"
5.59187, 45.35944, "[McDo] 38 Voiron (D- -W)"
5.62930, 45.29556, "[McDo] 38 Voreppe (D-K-W)"
5.47528, 47.08217, "[McDo] 39 Dole (D- -W)"
5.55054, 46.66867, "[McDo] 39 Lons-le-Saunier (D- -W)"
5.82985, 46.38131, "[McDo] 39 Saint Claude (D- -W)"
-1.16711, 44.41111, "[McDo] 40 Biscarosse (Lac) (D- -W)"
-1.04451, 43.71078, "[McDo] 40 Dax (C.Cial Carrefour) (D- -W)"
-0.48030, 43.90280, "[McDo] 40 Mont-de-Marsan (D- -W)"
-0.46515, 43.87750, "[McDo] 40 Mont-de-Marsan (Rocade - C.Cial Leclerc) (D- -W)"
-1.05105, 43.72365, "[McDo] 40 Saint Paul-lès-Dax (D- -W)"
-1.28298, 43.66901, "[McDo] 40 Saint Vincent-de-Tyrosse (D- -W)"
-1.46340, 43.52731, "[McDo] 40 Tarnos (C.Cial de l'Océan) (D- -W)"
1.32841, 47.60559, "[McDo] 41 Blois (D- -W)"
1.37776, 47.27891, "[McDo] 41 Noyers-sur-Cher (D- -W)"
1.73694, 47.37806, "[McDo] 41 Romorantin-Lanthenay (C.Cial Leclerc) (D- -W)"
1.07157, 47.80692, "[McDo] 41 Vendôme (D- -W)"
1.37029, 47.57142, "[McDo] 41 Vineuil (C.Cial Auchan) (D- -W)"
4.74110, 45.42824, "[McDo] 42 Chavanay (D- -W)"
4.22623, 45.71970, "[McDo] 42 Feurs (D- -W)"
4.27406, 45.37841, "[McDo] 42 Firminy (D- -W)"
4.29278, 45.52306, "[McDo] 42 La Fouillouse (D- -W)"
4.37428, 45.40924, "[McDo] 42 La Ricamarie (D- -W)"
4.05522, 46.06620, "[McDo] 42 Mably (Roanne) (D-K-W)"
4.08314, 45.59390, "[McDo] 42 Montbrison (D- -W)"
4.05575, 46.04517, "[McDo] 42 Riorges (D- -W)"
4.59580, 45.52017, "[McDo] 42 Rive-de-Gier(D- -W)"
4.07120, 46.03570, "[McDo] 42 Roanne ( -K-W)"
4.49484, 45.46275, "[McDo] 42 Saint Chamond (D- -W)"
4.39993, 45.46441, "[McDo] 42 Saint Etienne (Le stade) (D- -W)"
4.33905, 45.44049, "[McDo] 42 Saint Genest-Lerpt (D- -W)"
4.37376, 45.46709, "[McDo] 42 Saint Priest-en-Jarez (Musée) (D- -W)"
4.44191, 45.48177, "[McDo] 42 Sorbiers (D- -W)"
3.37311, 45.31459, "[McDo] 43 Brioude (D- -W)"
3.88097, 45.02748, "[McDo] 43 Vals-près-Le-Puy (C.Cial Géant) (D- -W)"
-1.47087, 47.18834, "[McDo] 44 Basse-Goulaine (D- - )"
-1.68195, 47.16278, "[McDo] 44 Bouaye (D- -W)"
-1.58828, 47.18827, "[McDo] 44 Bouguenais (D- - )"
-1.45379, 47.28335, "[McDo] 44 Carquefou (D- -W)"
-1.40338, 47.70110, "[McDo] 44 Châteaubriant (D- -W)"
-1.28229, 47.09756, "[McDo] 44 Clisson (D- -W)"
-2.39766, 47.29375, "[McDo] 44 Guérande (D- -W)"
-1.64456, 47.38119, "[McDo] 44 Héric (D- -W)"
-1.55082, 47.28498, "[McDo] 44 La Chapelle-sur-Erdre (D- -W)"
-1.55820, 47.21390, "[McDo] 44 Nantes (Commerce) ( - - )"
-1.51030, 47.25715, "[McDo] 44 Nantes (La Beaujoire) (D- -W)"
-1.61584, 47.19810, "[McDo] 44 Nantes (Pont Chevire) (D-K-W)"
-1.58191, 47.26097, "[McDo] 44 Nantes (Rte de Rennes) (D- -W)"
-2.08375, 47.43186, "[McDo] 44 Pont-Château (D- -W)"
-2.07221, 47.11231, "[McDo] 44 Pornic (D- - )"
-1.54306, 47.16028, "[McDo] 44 Rezé (C.Cial Océane) (D- -W)"
-1.19523, 47.37256, "[McDo] 44 Saint Géréon (D- -W)"
-1.63078, 47.22370, "[McDo] 44 Saint Herblain (C.Cial Atlantis) (D- -W)"
-1.61693, 47.21083, "[McDo] 44 Saint Herblain (Esplanande) (D- -W)"
-1.61978, 47.25064, "[McDo] 44 Saint Herblain (Rte de Vannes) (D- -W)"
-2.26453, 47.25917, "[McDo] 44 Saint Nazaire (C.Cial Océanis) (D- -W)"
-1.63943, 47.04662, "[McDo] 44 Saint Philbert-de-Grand-Lieu (D- -W)"
-2.20930, 47.29340, "[McDo] 44 Trignac (D-K-W)"
-1.74371, 47.29395, "[McDo] 44 Vigneux-de-Bretagne (D- -W)"
2.73462, 47.97829, "[McDo] 45 Amilly (D- -W)"
1.61294, 47.76691, "[McDo] 45 Beaugency (D- -W)"
2.03028, 47.90444, "[McDo] 45 Chécy (D- -W)"
2.64056, 47.70806, "[McDo] 45 Gien (D- -W)"
1.91789, 47.84550, "[McDo] 45 Olivet-la-Source (BK) (D- -W)"
1.90812, 47.87967, "[McDo] 45 Orléans (Basse Mouillère) (D- -W)"
1.90472, 47.90639, "[McDo] 45 Orléans (Verdun) ( - -W)"
2.24943, 48.18783, "[McDo] 45 Pithiviers (D- -W)"
1.86606, 47.90574, "[McDo] 45 Saint Jean-de-la-Ruelle (D-K-W)"
1.89242, 47.94591, "[McDo] 45 Saran (D- -W)"
1.42760, 44.46691, "[McDo] 46 Cahors (D- -W)"
2.01589, 44.60828, "[McDo] 46 Figeac (D- -W)"
0.62650, 44.20550, "[McDo] 47 Agen (Pl. du Pin) (D- -W)"
0.61361, 44.19000, "[McDo] 47 Agen (Sud) (D- -W)"
0.68306, 44.40380, "[McDo] 47 Bias (D- -W)"
0.63527, 44.17585, "[McDo] 47 Boe (D- -W)"
0.14183, 44.50920, "[McDo] 47 Marmande (D- -W)"
3.47848, 44.51500, "[McDo] 48 Mende (D- -W)"
-0.55478, 47.45100, "[McDo] 49 Angers (C.Cial La Roseraie) (D- -W)"
-0.54380, 47.48876, "[McDo] 49 Angers (C.Cial St-Serge) (D-K-W)"
-0.54870, 47.46990, "[McDo] 49 Angers (Centre-Ville) ( -K-W)"
-0.60662, 47.51743, "[McDo] 49 Avrille (D- -W)"
-0.72343, 47.23572, "[McDo] 49 Chemillé (D- -W)"
-0.89600, 47.04610, "[McDo] 49 Cholet (D- -W)"
-0.84270, 47.07380, "[McDo] 49 Cholet (La Louisière) (D-K-W)"
-0.52878, 47.39624, "[McDo] 49 Mûrs-Erigné (C.Cial Hyper U) (D- -W)"
-1.00591, 47.09426, "[McDo] 49 Saint André-de-la-Marche (D- -W)"
-0.09185, 47.26542, "[McDo] 49 Saumur (D- -W)"
-0.50983, 47.45649, "[McDo] 49 Trélazé (D- - )"
-1.36703, 48.69064, "[McDo] 50 Avranches (D- -W)"
-1.61690, 49.63410, "[McDo] 50 Cherbourg (D- - )"
-1.43103, 49.06899, "[McDo] 50 Coutances (D- -W)"
-1.68650, 49.66120, "[McDo] 50 Equeurdreville ( - - )"
-1.55256, 48.83805, "[McDo] 50 Granville (D- -W)"
-1.48906, 48.56004, "[McDo] 50 Pontorson (D- -W)"
-1.08214, 49.09995, "[McDo] 50 Saint-Lo (Le Bois Ardent) (D- -W)"
4.38616, 48.94384, "[McDo] 51 Chalons-en-Champagne (C.Cial Croix Dampierre) (D- -W)"
4.05056, 49.21583, "[McDo] 51 Cormontreuil (D- -W)"
3.95635, 49.05443, "[McDo] 51 Epernay (La Saule Verdelette) (D- -W)"
4.31655, 48.96028, "[McDo] 51 Fagnières (D- -W)"
3.94508, 49.02497, "[McDo] 51 Pierry (C.Cial) (D- -W)"
4.03032, 49.25422, "[McDo] 51 Reims ( -K-W)"
4.01257, 49.24027, "[McDo] 51 Reims (Hippodrome) (D- -W)"
4.06028, 49.26528, "[McDo] 51 Reims (Jean Jaurès) (D- -W)"
4.00377, 49.27750, "[McDo] 51 Reims (Saint-Brice) (D- -W)"
4.02083, 49.22056, "[McDo] 51 Reims (Val Murigny) (D- -W)"
3.73192, 48.71127, "[McDo] 51 Sézanne (D- -W)"
3.97709, 49.25368, "[McDo] 51 Tinqueux (Parking C.Cial Carrefour) (D- -W)"
4.58823, 48.72940, "[McDo] 51 Vitry-le-François (D- -W)"
5.14003, 48.10837, "[McDo] 52 Chaumont (D- -W)"
5.33173, 47.84445, "[McDo] 52 Langres (D- -W)"
4.96466, 48.62602, "[McDo] 52 Saint Dizier (D- -W)"
4.95946, 48.64936, "[McDo] 52 Saint Dizier Nord (D- -W)"
-0.68620, 47.83134, "[McDo] 53 Château-Gontier (D- - )"
-0.79912, 48.07763, "[McDo] 53 Laval (près Carrefour) (D- - )"
-0.73973, 48.05417, "[McDo] 53 Laval (près Leclerc) (D- - )"
-0.62385, 48.28509, "[McDo] 53 Mayenne (D- - )"
5.84284, 49.16493, "[McDo] 54 Conflans-en-Jarnisy (D- -W)"
6.36176, 48.60305, "[McDo] 54 Dombasle-sur-Meurthe (D- -W)"
6.22397, 48.70124, "[McDo] 54 Essey-lès-Nancy (D- -W)"
6.14833, 48.74472, "[McDo] 54 Frouard (D- -W)"
6.12809, 48.69389, "[McDo] 54 Laxou (Nancy Laxou) (D- -W)"
5.75417, 49.51778, "[McDo] 54 Longwy (Pulventeux) (D- -W)"
6.17661, 48.61933, "[McDo] 54 Ludres (D-K-W)"
6.51748, 48.57887, "[McDo] 54 Lunéville (D- -W)"
5.80059, 49.54323, "[McDo] 54 Mont-Saint-Martin (C.Cial Auchan) (D- -W)"
6.18314, 48.68992, "[McDo] 54 Nancy (Centre) ( -K-W)"
6.19890, 48.67921, "[McDo] 54 Nancy (Lobau) (D- -W)"
6.06394, 48.90085, "[McDo] 54 Pont-à-Mousson (Espace St Martin) (D- -W)"
5.89010, 48.67006, "[McDo] 54 Toul (D- -W)"
6.16553, 48.66631, "[McDo] 54 Vandoeuvre-lès-Nancy (Nancy Vandoeuvre) (D- -W)"
5.16379, 48.77551, "[McDo] 55 Bar-le-Duc (Centre) (D- -W)"
5.40741, 49.14564, "[McDo] 55 Verdun (D- -W)"
-2.50420, 47.55976, "[McDo] 56 Ambon (D- -W)"
-3.00750, 47.66361, "[McDo] 56 Auray (D- -W)"
-3.25939, 47.80042, "[McDo] 56 Hennebont (D- -W)"
-3.34233, 47.77764, "[McDo] 56 Lanester (D- -W)"
-3.36419, 47.74776, "[McDo] 56 Lorient (Centre) ( -K-W)"
-3.39520, 47.76304, "[McDo] 56 Lorient (Keryado) (D- -W)"
-2.83675, 47.89937, "[McDo] 56 Moréac (D- -W)"
-2.38725, 47.92037, "[McDo] 56 Ploërmel (D- -W)"
-2.96010, 48.05403, "[McDo] 56 Pontivy (D- -W)"
-2.72478, 47.65141, "[McDo] 56 Séné (D- -W)"
-2.79112, 47.66044, "[McDo] 56 Vannes (D- -W)"
6.13581, 49.24633, "[McDo] 57 Amnéville (D- -W)"
5.95579, 49.47627, "[McDo] 57 Audun-le-Tiche (D- -W)"
6.10944, 49.08137, "[McDo] 57 Augny-lès-Metz (D- -W)"
6.69510, 49.18945, "[McDo] 57 Creutzwald (D- -W)"
6.12120, 49.30550, "[McDo] 57 Fameck (D- -W)"
6.88167, 49.17583, "[McDo] 57 Forbach (D- -W)"
6.80973, 49.14156, "[McDo] 57 Freyming-Merlebach (D- -W)"
6.17002, 49.37989, "[McDo] 57 Manom (D- -W)"
6.14444, 49.06667, "[McDo] 57 Marly (D- -W)"
6.22518, 49.10810, "[McDo] 57 Metz (Borny) (D- -W)"
6.17498, 49.11856, "[McDo] 57 Metz (Palais Centre-Ville) ( - -W)"
6.17344, 49.11481, "[McDo] 57 Metz (République) ( -K-W)"
6.17469, 49.26330, "[McDo] 57 Mondelange (D- -W)"
6.71833, 49.10861, "[McDo] 57 Saint Avold (Mangin) (D- -W)"
6.19718, 49.13364, "[McDo] 57 Saint Julien-lès-Metz (D- -W)"
7.07750, 48.73944, "[McDo] 57 Sarrebourg (Z.A.) (D- -W)"
7.04068, 49.09250, "[McDo] 57 Sarreguemines (Beau Soleil) (D- -W)"
7.09603, 49.11756, "[McDo] 57 Sarreguemines (D- -W)"
6.14674, 49.19174, "[McDo] 57 Semécourt (D-K-W)"
6.14233, 49.35536, "[McDo] 57 Thionville (C.Cial Geric) ( - - )"
6.13845, 49.35820, "[McDo] 57 Thionville (D-K-W)"
6.11026, 49.36244, "[McDo] 57 Thionville (Kinepolis) (D- -W)"
6.16107, 49.14900, "[McDo] 57 Woippy (D- -W)"
6.17880, 49.34922, "[McDo] 57 Yutz (D- -W)"
2.92318, 47.39054, "[McDo] 58 Cosne-Cours-sur-Loire (C.Cial Carrefour Market) (D- -W)"
3.10640, 46.99862, "[McDo] 58 Marzy (C.Cial Carrefour) (D- - )"
3.16495, 46.98830, "[McDo] 58 Nevers (Centre) (D- - )"
3.14764, 47.02023, "[McDo] 58 Varennes-Vauzelles (C.Cial Intermarché) (D- -W)"
2.87220, 50.69171, "[McDo] 59 Armentières (D- -W)"
3.51256, 50.33268, "[McDo] 59 Aulnoy-lez-Valenciennes (D- -W)"
2.74100, 50.72353, "[McDo] 59 Bailleul (C.Cial Leclerc) (D- -W)"
3.23306, 50.16861, "[McDo] 59 Cambrai (D-K-W)"
3.42324, 50.12774, "[McDo] 59 Caudry (D- -W)"
3.59152, 50.45635, "[McDo] 59 Condé-sur-l'Escaut (D- -W)"
3.15348, 50.66974, "[McDo] 59 Croix (D- -W)"
3.38750, 50.32517, "[McDo] 59 Denain (D- -W)"
3.08912, 50.38018, "[McDo] 59 Douai (Vauban) (D-K-W)"
2.37000, 51.03270, "[McDo] 59 Dunkerque (Marine) ( - -W)"
2.39333, 51.03250, "[McDo] 59 Dunkerque (Villette) (D- -W)"
3.04590, 50.39709, "[McDo] 59 Flers-en-Escrebieux (Douai Flers) ( - -W)"
4.03125, 50.02739, "[McDo] 59 Fourmies (C.Cial Carrefour) (D- -W)"
2.31250, 51.02333, "[McDo] 59 Grande-Synthe (D- -W)"
2.95798, 50.60707, "[McDo] 59 Hallennes-lez-Haubourdin (D- -W)"
3.12570, 50.77094, "[McDo] 59 Halluin (D- -W)"
2.54680, 50.73880, "[McDo] 59 Hazebrouck (D- -W)"
3.08871, 50.58519, "[McDo] 59 Lesquin (D- -W)"
3.06290, 50.63679, "[McDo] 59 Lille (Centre) ( - -W)"
3.07269, 50.64227, "[McDo] 59 Lille (Euralille Carnot) (D- -W)"
3.03421, 50.61878, "[McDo] 59 Lille (Fbg de Béthune) (D- -W)"
3.07008, 50.63564, "[McDo] 59 Lille (Gare SNCF Lille-Flandres) ( - -W)"
3.06213, 50.63284, "[McDo] 59 Lille (Pl. de Béthune) ( - -W)"
2.98413, 50.65054, "[McDo] 59 Lomme (C.Cial Carrefour) (D- -W)"
3.93590, 50.25870, "[McDo] 59 Louvroil (C.Cial Auchan) (D- -W)"
3.22331, 50.67883, "[McDo] 59 Lys-lez-Lannoy (C.Cial Auchan Leers) (D- -W)"
3.07632, 50.66524, "[McDo] 59 Marcq-en-Baroeul (D- -W)"
3.96810, 50.27440, "[McDo] 59 Maubeuge (D- -W)"
3.23570, 50.47570, "[McDo] 59 Orchies (D- -W)"
3.47667, 50.38096, "[McDo] 59 Petite-Forêt (La Madeleine) (D-K-W)"
2.43380, 50.95612, "[McDo] 59 Quaëdypre (Bergues) (D- -W)"
3.04889, 50.54889, "[McDo] 59 Seclin (D- -W)"
3.09601, 50.34173, "[McDo] 59 Sin-le-Noble (Douai Sin-le-Noble) (D- -W)"
3.28510, 50.34664, "[McDo] 59 Somain (D- -W)"
3.14614, 50.74050, "[McDo] 59 Tourcoing (Auchan Roncq) (D- -W)"
3.13320, 50.72570, "[McDo] 59 Tourcoing (Watt) (D- -W)"
3.52420, 50.35840, "[McDo] 59 Valenciennes ( - -W)"
3.51566, 50.34127, "[McDo] 59 Valenciennes (Gaumont) (D- -W)"
3.52284, 50.36480, "[McDo] 59 Valenciennes (Harpignies) (D- -W)"
3.12699, 50.61666, "[McDo] 59 Villeneuve-d'Ascq (Lille Villeneuve-d'Ascq II Drive) (D- -W)"
3.12818, 50.68186, "[McDo] 59 Wasquehal (Carrefour) (D- -W)"
3.04968, 50.59622, "[McDo] 59 Wattignies (D- -W)"
2.11359, 49.40760, "[McDo] 60 Allonne (Beauvais Allonne) (D- -W)"
2.08444, 49.43194, "[McDo] 60 Beauvais (Centre) ( - -W)"
2.09763, 49.45227, "[McDo] 60 Beauvais (Tille) (D- -W)"
2.25347, 49.15293, "[McDo] 60 Chambly (D- -W)"
2.40167, 49.38274, "[McDo] 60 Clermont-de-l'Oise (D- -W)"
2.78416, 49.40955, "[McDo] 60 Compiègne (C.Cial Carrefour) (D- -W)"
2.78904, 49.39040, "[McDo] 60 Compiègne (Mercières) (D- -W)"
2.89747, 49.22995, "[McDo] 60 Crépy-en-Valois (Carnot) (D- -W)"
2.73804, 49.09689, "[McDo] 60 Lagny-le-Sec (D- -W)"
2.44116, 49.14585, "[McDo] 60 Lamorlaye (D- -W)"
2.13889, 49.22056, "[McDo] 60 Meru (D- -W)"
2.45100, 49.25940, "[McDo] 60 Montataire (Creil Cinéma) (D- -W)"
2.98020, 49.56960, "[McDo] 60 Noyon (D- -W)"
2.46732, 49.23335, "[McDo] 60 Saint Maximin (D- -W)"
2.60335, 49.20852, "[McDo] 60 Senlis (D- -W)"
2.49810, 49.28766, "[McDo] 60 Villers-Saint-Paul (D- -W)"
-0.02806, 48.74890, "[McDo] 61 Argentan (D- - )"
0.06004, 48.43322, "[McDo] 61 Condé-sur-Sarthe ( - - )"
-0.58103, 48.72722, "[McDo] 61 Flers (D- -W)"
0.63412, 48.76195, "[McDo] 61 L'Aigle (D- - )"
2.41186, 50.63629, "[McDo] 62 Aire-sur-la-Lys (D- -W)"
2.73822, 50.30035, "[McDo] 62 Arras (D- -W)"
2.47566, 50.51156, "[McDo] 62 Auchel (D- -W)"
2.79366, 50.52123, "[McDo] 62 Auchy-les-Mines (D- -W)"
2.80038, 50.26814, "[McDo] 62 Beaurains (D- -W)"
1.59484, 50.40369, "[McDo] 62 Berck (D- -W)"
1.67027, 50.73345, "[McDo] 62 Boulogne-sur-Mer (Saint Martin-Boulogne Auchan) (D- -W)"
2.57668, 50.49514, "[McDo] 62 Bruay-la-Buissière (D- -W)"
1.89007, 50.95277, "[McDo] 62 Calais (C.Cial Mivoix) (D- -W)"
1.86177, 50.93717, "[McDo] 62 Calais (Curie) (D- -W)"
2.96593, 50.47970, "[McDo] 62 Carvin (D- -W)"
1.80955, 50.93573, "[McDo] 62 Coquelles (Calais Cité de l'Europe) ( -K-W)"
1.80781, 50.94283, "[McDo] 62 Coquelles (D- -W)"
2.94508, 50.44392, "[McDo] 62 Courrières (D- -W)"
1.63056, 50.50943, "[McDo] 62 Cucq (D- -W)"
2.73940, 50.28410, "[McDo] 62 Dainville (D- -W)"
2.62222, 50.51583, "[McDo] 62 Fouquières-les-Béthune (Béthune) (D- -W)"
2.92801, 50.33405, "[McDo] 62 Fresnes-lès-Montauban (D- -W)"
2.97535, 50.40527, "[McDo] 62 Hénin-Beaumont (D- -W)"
2.81954, 50.43241, "[McDo] 62 Lens (Bollaert) (D- -W)"
2.77790, 50.42280, "[McDo] 62 Liévin (D- -W)"
2.25949, 50.73993, "[McDo] 62 Longuenesse (Saint Omer) (D- -W)"
2.67817, 50.47438, "[McDo] 62 Noeux-les-Mines (Noeux Loisinord) (D- -W)"
2.97723, 50.41598, "[McDo] 62 Noyelles-Godault (D- -W)"
1.60839, 50.69993, "[McDo] 62 Outreau (Boulogne-sur-Mer) (D- -W)"
2.22091, 50.76004, "[McDo] 62 Saint Martin-au-Laert (D- -W)"
1.64435, 50.72699, "[McDo] 62 Saint Martin-Boulogne (D- -W)"
2.82759, 50.46288, "[McDo] 62 Vendin-le-Viel (C.Cial Cora) (D- -W)"
3.13225, 45.75083, "[McDo] 63 Aubière (D- -W)"
3.08977, 45.74478, "[McDo] 63 Beaumont (D- -W)"
3.08176, 45.77800, "[McDo] 63 Clermont-Ferrand (Centre - entrée 1) ( - -W)"
3.08217, 45.77806, "[McDo] 63 Clermont-Ferrand (Centre - entrée 2) ( - -W)"
3.13842, 45.78878, "[McDo] 63 Clermont-Ferrand (Le Brezet) (D- -W)"
3.10555, 45.78861, "[McDo] 63 Clermont-Ferrand (Le Stade) (D- -W)"
3.12779, 45.76431, "[McDo] 63 Clermont-Ferrand (Pardieu) (D-K-W)"
3.17313, 45.74026, "[McDo] 63 Cournon-d'Auvergne (D- -W)"
3.15521, 45.81986, "[McDo] 63 Gerzat (D- -W)"
3.26668, 45.55138, "[McDo] 63 Issoire (D- -W)"
3.18672, 45.77619, "[McDo] 63 Lempdes (D- -W)"
3.07385, 45.88960, "[McDo] 63 Mozac (D- -W)"
3.50777, 45.84009, "[McDo] 63 Thiers (Les Varennes) (D- -W)"
-1.51937, 43.49432, "[McDo] 64 Anglet (C.Cial BAB3000) (D- -W)"
-1.50295, 43.48272, "[McDo] 64 Anglet (D-K-W)"
-1.52284, 43.52698, "[McDo] 64 Anglet (La Barre) ( - - )"
-1.45288, 43.49229, "[McDo] 64 Bayonne (St Esprit) (D- -W)"
-0.23903, 43.18692, "[McDo] 64 Bénéjacq (D- - )"
-0.42408, 43.31774, "[McDo] 64 Lons (Pau Lons) (D- -W)"
-0.37999, 43.32431, "[McDo] 64 Lons-le-Perlic (Pau Sud) (D- -W)"
-0.36034, 43.27902, "[McDo] 64 Mazères-Lezons (C.Cial Grand Sud) (D- -W)"
-0.62568, 43.37227, "[McDo] 64 Mourenx (D- -W)"
-0.61870, 43.18122, "[McDo] 64 Oloron-Sainte-Marie (D- -W)"
-0.77958, 43.48780, "[McDo] 64 Orthez (D- -W)"
-0.35884, 43.31537, "[McDo] 64 Pau (C.Cial Leclerc) ( - - )"
-0.33176, 43.30681, "[McDo] 64 Pau (Nobel) (D- -W)"
-1.64048, 43.39931, "[McDo] 64 Saint Jean-de-Luz (D- -W)"
0.01810, 43.24129, "[McDo] 65 Ibos (D- -W)"
0.38654, 43.10344, "[McDo] 65 Lannemezan (D- -W)"
-0.04596, 43.09557, "[McDo] 65 Lourdes ( -K-W)"
0.06072, 43.22166, "[McDo] 65 Tarbes (D- -W)"
3.00947, 42.55888, "[McDo] 66 Argelès-sur-Mer (D-K-W)"
3.02265, 42.69951, "[McDo] 66 Canet-en-Roussillon (D- -W)"
2.91514, 42.77691, "[McDo] 66 Claira (D- -W)"
2.99682, 42.60775, "[McDo] 66 Latour-Bas-Elne (D- -W)"
2.84133, 42.53448, "[McDo] 66 Le Boulou (D- -W)"
2.90689, 42.68675, "[McDo] 66 Perpignan (D-K-W)"
2.88768, 42.71739, "[McDo] 66 Perpignan (Joffre) (D- -W)"
2.88988, 42.67264, "[McDo] 66 Perpignan (Porte d'Europe) (D- -W)"
2.93547, 42.69952, "[McDo] 66 Perpignan (San Remo) (D- -W)"
2.84636, 42.69302, "[McDo] 66 Perpignan (St Charles) (D- -W)"
2.42800, 42.62490, "[McDo] 66 Prades (C.Cial Super U) (D- -W)"
2.76260, 42.64077, "[McDo] 66 Thuir (D-K-W)"
7.69302, 48.74631, "[McDo] 67 Brumath (D- -W)"
7.49787, 48.52489, "[McDo] 67 Dorlisheim (D- -W)"
7.65952, 48.42852, "[McDo] 67 Erstein (D- -W)"
7.69352, 48.52218, "[McDo] 67 Geispolsheim (D- -W)"
7.75793, 48.82779, "[McDo] 67 Haguenau (D- -W)"
7.83481, 48.80040, "[McDo] 67 Haguenau (Taubenhof) (D- -W)"
7.76556, 48.63091, "[McDo] 67 Hoenheim (D- -W)"
7.73153, 48.52918, "[McDo] 67 Illkirch-Graffenstaden (Campus) (D- -W)"
7.37430, 48.70250, "[McDo] 67 Marmoutier (D- -W)"
7.70556, 48.60472, "[McDo] 67 Oberhausbergen (D- -W)"
7.49341, 48.45861, "[McDo] 67 Obernai (D- -W)"
7.75771, 48.60294, "[McDo] 67 Schiltigheim (D- -W)"
7.74708, 48.58306, "[McDo] 67 Strasbourg (Arcades) ( - -W)"
7.74285, 48.58621, "[McDo] 67 Strasbourg (C.Cial Halles) ( -K-W)"
7.75881, 48.57346, "[McDo] 67 Strasbourg (C.Cial Rivétoile) ( - -W)"
7.76775, 48.57716, "[McDo] 67 Strasbourg (Esplanade) ( - -W)"
7.73651, 48.58434, "[McDo] 67 Strasbourg (Gare) ( -K-W)"
7.75236, 48.56153, "[McDo] 67 Strasbourg (Meinau) (D- -W)"
7.46280, 48.27526, "[McDo] 67 Sélestat (D- -W)"
7.96170, 49.02919, "[McDo] 67 Wissembourg (D- -W)"
7.67154, 48.59134, "[McDo] 67 Wolfisheim (D- -W)"
7.22336, 47.62807, "[McDo] 68 Altkirch-Carspach (D- -W)"
7.17222, 47.79417, "[McDo] 68 Cernay (D- -W)"
7.36646, 48.07074, "[McDo] 68 Colmar (D- -W)"
7.22319, 47.90177, "[McDo] 68 Guebwiller (D- -W)"
7.40569, 48.07370, "[McDo] 68 Horbourg-Wihr (D- -W)"
7.36354, 48.12852, "[McDo] 68 Houssen (Colmar Houssen) (D- -W)"
7.31604, 47.78919, "[McDo] 68 Kingersheim (Mulhouse Kingersheim) (D- -W)"
7.29500, 47.75833, "[McDo] 68 Lutterbach (D- -W)"
7.33915, 47.74831, "[McDo] 68 Mulhouse (Rue du Sauvage) ( - -W)"
7.31738, 47.73341, "[McDo] 68 Mulhouse (Université) (D- -W)"
7.16031, 48.04370, "[McDo] 68 Munster (D- -W)"
7.54380, 47.60551, "[McDo] 68 Saint Louis (D- -W)"
7.39074, 47.77531, "[McDo] 68 Sausheim (D- -W)"
7.31333, 47.80722, "[McDo] 68 Wittenheim (Mulhouse Wittenheim) (D- -W)"
4.75150, 46.10628, "[McDo] 69 Belleville (D- -W)"
4.91988, 45.72174, "[McDo] 69 Bron (Toys-C.Cial Portes des Alpes) (D-K-W)"
4.85083, 45.79806, "[McDo] 69 Caluire-et-Cuire (D-K-W)"
4.78519, 45.80206, "[McDo] 69 Champagne-au-Mont-d'Or (D- -W)"
4.92639, 45.64951, "[McDo] 69 Chaponnay (D- -W)"
4.70331, 45.85595, "[McDo] 69 Civrieux-d'Azergues (D- -W)"
4.74174, 45.74734, "[McDo] 69 Craponne (D- -W)"
4.97731, 45.77222, "[McDo] 69 Décines-Charpieu (D- -W)"
4.77603, 45.78960, "[McDo] 69 Ecully (C.Cial Carrefour) ( - -W)"
4.77370, 45.73470, "[McDo] 69 Francheville (C.Cial Taffignon) ( - -W)"
4.98712, 45.72869, "[McDo] 69 Genas (D- -W)"
4.82193, 45.89467, "[McDo] 69 Genay (D- -W)"
4.75220, 45.58440, "[McDo] 69 Givors ( - - )"
4.81650, 45.74155, "[McDo] 69 Lyon 2 (C.Cial Confluence niv.2) ( -K- )"
4.83409, 45.76444, "[McDo] 69 Lyon 2 (Herriot) ( - -W)"
4.83423, 45.75818, "[McDo] 69 Lyon 2 (République) ( - -W)"
4.82900, 45.75287, "[McDo] 69 Lyon 2 (Victor Hugo) ( - -W)"
4.80547, 45.75432, "[McDo] 69 Lyon 5 (Charcot) (D- -W)"
4.84292, 45.75516, "[McDo] 69 Lyon 7 (Gabriel Péri) ( - -W)"
4.83806, 45.72639, "[McDo] 69 Lyon 7 (Gerland-Tony Garnier) (D- -W)"
4.87802, 45.74318, "[McDo] 69 Lyon 8 (Grange Blanche) ( - -W)"
4.86158, 45.74876, "[McDo] 69 Lyon 8 (Université) ( - -W)"
5.02928, 45.76029, "[McDo] 69 Meyzieu (D- -W)"
4.88993, 45.81736, "[McDo] 69 Rilleux-la-Pape (D- -W)"
5.01334, 45.69793, "[McDo] 69 Saint Bonnet-de-Mure (D- -W)"
4.79367, 45.68037, "[McDo] 69 Saint Genis-Laval (C.Cial Auchan) ( -K-W)"
4.93565, 45.72384, "[McDo] 69 Saint Priest (Bron Aviation) (D- -W)(24/24)"
4.94646, 45.68482, "[McDo] 69 Saint Priest (Garibaldi) (D- -W)"
4.82476, 45.63857, "[McDo] 69 Solaize (D- -W)"
4.44513, 45.89028, "[McDo] 69 Tarare (D- -W)"
4.76803, 45.76423, "[McDo] 69 Tassin-la-Demi-Lune (D-K-W)"
4.76972, 45.75222, "[McDo] 69 Tassin-la-Demi-Lune (Lyon Etoile d'Alaï) (D- -W)"
4.93250, 45.74806, "[McDo] 69 Vaulx-en-Velin (D- -W)"
4.73429, 45.99844, "[McDo] 69 Villefranche-sur-Saône (D- -W)"
4.73553, 45.97923, "[McDo] 69 Villefranche-sur-Saône (Ferry) (D- -W)"
4.86333, 45.77040, "[McDo] 69 Villeurbanne (Charpennes) ( -K-W)"
4.91322, 45.76275, "[McDo] 69 Villeurbanne (La Soie) (D- -W)"
4.87995, 45.71271, "[McDo] 69 Vénissieux (Curie) (D- -W)"
6.39589, 47.81819, "[McDo] 70 Froideconche (Luxeuil Froideconche) (D- -W)"
5.60158, 47.43544, "[McDo] 70 Gray (D- -W)"
6.50973, 47.67321, "[McDo] 70 Lure (D- -W)"
6.13920, 47.63131, "[McDo] 70 Vesoul (Cinéma) (D- -W)"
6.17004, 47.62794, "[McDo] 70 Vesoul (D- -W)"
4.31690, 46.95593, "[McDo] 71 Autun (D- -W)"
4.85278, 46.78417, "[McDo] 71 Chalon-sur-Saône ( - -W)"
4.86630, 46.78772, "[McDo] 71 Chalon-sur-Saône (Bowling) (D- -W)"
4.85901, 46.77414, "[McDo] 71 Chalon-sur-Saône (Sud) (D- -W)"
4.78961, 46.25292, "[McDo] 71 Crèches-sur-Saône (D- -W)"
4.42855, 46.80887, "[McDo] 71 Le Creusot (D- -W)"
4.36209, 46.68187, "[McDo] 71 Montceau-les-Mines (D- -W)"
4.81019, 46.28751, "[McDo] 71 Mâcon (D- -W)"
4.84228, 46.33162, "[McDo] 71 Sancé (D-K-W)"
4.90280, 46.57459, "[McDo] 71 Tournus (D- -W)"
4.08379, 46.46216, "[McDo] 71 Vitry-en-Charollais (D- -W)"
0.15892, 47.97488, "[McDo] 72 Allonnes (D- -W)"
0.08797, 48.40523, "[McDo] 72 Arçonnay (D- -W)"
0.17517, 48.03646, "[McDo] 72 La Chapelle-Saint-Aubin (D- -W)"
0.65250, 48.18092, "[McDo] 72 la Ferté-Bernard (D- -W)"
-0.05304, 47.70333, "[McDo] 72 La Flèche ( - - )"
0.19596, 48.00372, "[McDo] 72 Le Mans (Centre) ( -K-W)"
0.21532, 47.97504, "[McDo] 72 Le Mans (D- -W)"
0.22824, 48.02232, "[McDo] 72 Le Mans (Rte de Bonnetable) (D- - )"
0.15974, 48.01467, "[McDo] 72 Le Mans (Saint-Saturnin) (D- -W)"
0.23243, 47.93995, "[McDo] 72 Mulsanne (D- -W)"
-0.29891, 47.83804, "[McDo] 72 Sablé-sur-Sarthe (D- - )"
0.17060, 48.05078, "[McDo] 72 Saint Saturnin (D- -W)"
0.43204, 47.68755, "[McDo] 72 Vouvray-sur-Loir (D- -W)"
5.89621, 45.69367, "[McDo] 73 Aix-les-Bains (D- -W)"
6.39002, 45.66471, "[McDo] 73 Albertville (D- -W)"
6.77637, 45.62285, "[McDo] 73 Bourg-Saint-Maurice (D- -W)"
5.89796, 45.59265, "[McDo] 73 Chambéry (Nord) (D-K-W)"
6.36306, 45.65556, "[McDo] 73 Gilly-sur-Isère (D- -W)"
5.95176, 45.57266, "[McDo] 73 Saint Alban-Leysse (D- -W)"
6.36418, 45.27038, "[McDo] 73 Saint Jean-de-Maurienne (D- -W)"
6.12404, 45.92570, "[McDo] 74 Annecy ( -K-W)"
6.43190, 46.34900, "[McDo] 74 Anthy-sur-Léman (D- -W)"
6.40813, 46.07323, "[McDo] 74 Bonneville (D- -W)"
6.87139, 45.92333, "[McDo] 74 Chamonix (Centre-Ville) ( - -W)"
6.08241, 45.93301, "[McDo] 74 Epagny (D- -W)"
6.23056, 46.18167, "[McDo] 74 Etrembières (D-K-W)"
6.62552, 45.86401, "[McDo] 74 Megève (D- - )"
6.09508, 46.12222, "[McDo] 74 Neydens (Vitam'Parc) (D-K-W)"
5.94336, 45.85895, "[McDo] 74 Rumilly (D- -W)"
6.62941, 45.95287, "[McDo] 74 Sallanches (D- -W)"
6.55552, 46.06717, "[McDo] 74 Scionzier (D- -W)"
6.08889, 45.87658, "[McDo] 74 Seynod (D- - )"
6.14249, 45.85803, "[McDo] 74 Sévrier (D- -W)"
2.34828, 48.86090, "[McDo] 75 Paris 01 (Berger) ( - -W)"
2.34615, 48.86199, "[McDo] 75 Paris 01 (Forum) ( - -W)"
2.33408, 48.86354, "[McDo] 75 Paris 01 (Louvre) ( -K-W)"
2.34601, 48.85929, "[McDo] 75 Paris 02 (Rivoli) ( -K-W)"
2.36251, 48.86760, "[McDo] 75 Paris 03 (République) ( - -W)"
2.35146, 48.85782, "[McDo] 75 Paris 04 (Hôtel de ville) ( - -W)"
2.36417, 48.84315, "[McDo] 75 Paris 05 (Austerlitz) ( -K-W)"
2.34353, 48.85138, "[McDo] 75 Paris 05 (St-Germain) ( - -W)"
2.34095, 48.84718, "[McDo] 75 Paris 05 (St-Michel) ( - -W)"
2.32486, 48.84433, "[McDo] 75 Paris 06 (Rue de Rennes) ( - -W)"
2.29913, 48.87261, "[McDo] 75 Paris 08 (Champs Elysées) ( -K-W)"
2.30388, 48.87125, "[McDo] 75 Paris 08 (Galerie des Champs Elysées) ( - -W)"
2.32553, 48.87513, "[McDo] 75 Paris 08 (Rue St-Lazare) ( - -W)"
2.34762, 48.87091, "[McDo] 75 Paris 09 (Bonne Nouvelle) ( - -W)"
2.34412, 48.87599, "[McDo] 75 Paris 09 (Cadet) ( -K-W)"
2.32865, 48.87571, "[McDo] 75 Paris 09 (Caumartin) ( - -W)"
2.34045, 48.87215, "[McDo] 75 Paris 09 (Montmartre) ( - -W)"
2.33528, 48.87110, "[McDo] 75 Paris 09 (Opéra-Bvd des Italiens) ( -K-W)"
2.32831, 48.88360, "[McDo] 75 Paris 09 (Pl. de Clichy) ( - -W)"
2.33003, 48.87433, "[McDo] 75 Paris 09 (Provence) ( - -W)"
2.36776, 48.86888, "[McDo] 75 Paris 10 (Faubourg du Temple) ( - -W)"
2.35406, 48.88001, "[McDo] 75 Paris 10 (Gare du Nord) ( -K-W)"
2.35613, 48.87631, "[McDo] 75 Paris 10 (Magenta) ( - -W)"
2.37000, 48.85403, "[McDo] 75 Paris 11 (Bastille) ( - -W)"
2.38036, 48.85752, "[McDo] 75 Paris 11 (Léon Blum BK) ( - -W)"
2.38277, 48.86700, "[McDo] 75 Paris 11 (Ménilmontant) ( - -W)"
2.37470, 48.86501, "[McDo] 75 Paris 11 (Parmentier) ( - -W)"
2.37622, 48.85098, "[McDo] 75 Paris 12 (Ledru Rollin BK) ( - -W)"
2.40606, 48.83561, "[McDo] 75 Paris 12 (Porte Dorée) ( - -W)"
2.38671, 48.84734, "[McDo] 75 Paris 12 (Reuilly Diderot) ( - -W)"
2.35526, 48.82868, "[McDo] 75 Paris 13 (C.Cial Italie 2) ( - -W)"
2.36397, 48.82075, "[McDo] 75 Paris 13 (Choisy) ( - -W)"
2.35059, 48.83666, "[McDo] 75 Paris 13 (Gobelins) ( - -W)"
2.36675, 48.82660, "[McDo] 75 Paris 13 (Nationale) ( - -W)"
2.35643, 48.83076, "[McDo] 75 Paris 13 (Pl. d'Italie) ( -K-W)"
2.35702, 48.82599, "[McDo] 75 Paris 13 (Tolbiac) ( -K-W)"
2.32743, 48.82863, "[McDo] 75 Paris 14 (Alésia) ( - -W)"
2.33139, 48.83320, "[McDo] 75 Paris 14 (Denfert Rochereau) ( -K-W)"
2.27778, 48.83194, "[McDo] 75 Paris 15 (Aquaboulevard) ( - -W)"
2.28551, 48.84674, "[McDo] 75 Paris 15 (Beaugrenelle) ( -K-W)"
2.29583, 48.83743, "[McDo] 75 Paris 15 (Convention) ( -K-W)"
2.29786, 48.84876, "[McDo] 75 Paris 15 (Rue du Commerce) ( - -W)"
2.25763, 48.83798, "[McDo] 75 Paris 16 (Porte de Saint Cloud) ( - -W)"
2.27764, 48.85764, "[McDo] 75 Paris 16 (Rue de Passy) ( - -W)"
2.28180, 48.86810, "[McDo] 75 Paris 16 (Victor Hugo) ( -K-W)"
2.32527, 48.88747, "[McDo] 75 Paris 17 (La Fourche) ( - -W)"
2.29210, 48.88554, "[McDo] 75 Paris 17 (Porte de Champerret) ( - -W)"
2.29600, 48.87556, "[McDo] 75 Paris 17 (Wagram) ( - -W)"
2.34468, 48.89735, "[McDo] 75 Paris 18 (Clignancourt) ( - - )"
2.35995, 48.89041, "[McDo] 75 Paris 18 (Marx Dormoy) ( - -W)"
2.34656, 48.89594, "[McDo] 75 Paris 18 (Ornano) ( - -W)"
2.34678, 48.88398, "[McDo] 75 Paris 18 (Orsel) ( - -W)"
2.33790, 48.88235, "[McDo] 75 Paris 18 (Pl. Pigalle) ( - -W)"
2.37551, 48.88973, "[McDo] 75 Paris 19 (Crimée) ( - -W)"
2.38537, 48.88318, "[McDo] 75 Paris 19 (Manin Buttes Chaumont) ( -K- )"
2.39278, 48.88849, "[McDo] 75 Paris 19 (Porte de Pantin) ( - -W)"
2.40620, 48.87723, "[McDo] 75 Paris 19 (Porte des Lilas) ( - -W)"
2.38517, 48.87390, "[McDo] 75 Paris 19 (Rue de Belleville) ( - -W)"
2.37041, 48.88251, "[McDo] 75 Paris 19 (Stalingrad) ( - -W)"
2.39783, 48.86475, "[McDo] 75 Paris 20 (Gambetta BK) ( - -W)"
2.40825, 48.86450, "[McDo] 75 Paris 20 (Porte de Bagnolet) ( - -W)"
2.41022, 48.85317, "[McDo] 75 Paris 20 (Porte de Montreuil) ( - -W)"
2.41075, 48.84749, "[McDo] 75 Paris 20 (Porte de Vincennes) ( - -W)"
0.96305, 49.53609, "[McDo] 76 Barentin (Rouen Barentin) (D- - )"
1.10113, 49.47831, "[McDo] 76 Bois-Guillaume (D- - )"
1.04369, 49.45900, "[McDo] 76 Canteleu (Bapeaume) (D- -W)"
1.03605, 49.28955, "[McDo] 76 Caudebec-lès-Elbeuf (D- -W)"
1.07917, 49.91111, "[McDo] 76 Dieppe (C.Cial Le Belvédère) (D- -W)"
1.73961, 49.47788, "[McDo] 76 Ferrières-en-Bray (D- -W)"
0.37615, 49.75916, "[McDo] 76 Fécamp (D- -W)"
1.04580, 49.41508, "[McDo] 76 Grand-Quevilly (D- - )"
0.49123, 49.55114, "[McDo] 76 Gruchet-le-Valasse (D- -W)"
0.11126, 49.49691, "[McDo] 76 Le Havre (Coty) ( - -W)"
0.13028, 49.49278, "[McDo] 76 Le Havre (D- -W)"
1.15203, 49.40614, "[McDo] 76 Le Mesnil-Esnard (D- -W)"
0.19108, 49.52528, "[McDo] 76 Montivilliers (C.Cial La Lézarde) (D- -W)"
1.43335, 49.73335, "[McDo] 76 Neufchâtel-en-Bray (C.Cial Leclerc) (D- -W)"
1.09016, 49.44189, "[McDo] 76 Rouen (Gros Horloge) ( -K- )"
1.07255, 49.44493, "[McDo] 76 Rouen (Mt-Riboudet) (D- -W)"
1.08660, 49.43135, "[McDo] 76 Rouen (St-Sever) ( - - )"
1.05947, 49.39333, "[McDo] 76 Saint Etienne-du-Rouvray (D- - )"
1.10032, 49.32922, "[McDo] 76 Tourville-la-Rivière (D-K- )"
0.77496, 49.61255, "[McDo] 76 Yvetot (D- -W)"
2.73928, 48.42347, "[McDo] 77 Avon (D- -W)"
2.59767, 48.70198, "[McDo] 77 Brie-Comte-Robert (Servon) (D- -W)"
2.70954, 48.83070, "[McDo] 77 Bussy-Saint-Georges ( - -W)"
2.59739, 48.58606, "[McDo] 77 Cesson (Melun-Sénart) (D- -W)"
2.57744, 48.84896, "[McDo] 77 Champs-sur-Marne (D- -W)"
2.60267, 48.87656, "[McDo] 77 Chelles (D- -W)"
2.78501, 48.86846, "[McDo] 77 Chessy-Coupvray (Disneyland Paris) ( - -W)"
2.66375, 48.94556, "[McDo] 77 Claye-Souilly ( - -W)"
3.08912, 48.80356, "[McDo] 77 Coulommiers (D- -W)"
2.65252, 48.52266, "[McDo] 77 Dammarie-les-Lys (D- -W)"
2.58316, 48.50057, "[McDo] 77 Dammarie-les-Lys (Villiers-en-Bière) ( - -W)"
2.73787, 48.73407, "[McDo] 77 Gretz-Armainvilliers (D- -W)"
3.11128, 48.94494, "[McDo] 77 La Ferté-sous-Jouarre (C.Cial Intermarché) ( - - )"
2.68272, 48.87053, "[McDo] 77 Lagny-sur-Marne (D- -W)"
2.54660, 48.61555, "[McDo] 77 Lieusaint (Carré Sénart) ( - -W)"
2.64133, 48.83391, "[McDo] 77 Lognes (D- -W)"
2.66228, 48.83665, "[McDo] 77 Marne-la-Vallée (C.Cial Torcy Bay 2) ( - - )"
2.88383, 48.95710, "[McDo] 77 Meaux (Elf) (D- -W)"
2.88016, 48.94163, "[McDo] 77 Meaux (Nanteuil-lès-Meaux) (D- -W)"
2.63704, 48.55698, "[McDo] 77 Melun (ZAC du Champs de Foire) (D- -W)"
2.56333, 48.62306, "[McDo] 77 Moissy-Cramayel (D- -W)"
2.95655, 48.37598, "[McDo] 77 Montereau-Fault-Yonne (D- -W)"
3.00478, 48.55627, "[McDo] 77 Nangis (D- -W)"
2.60705, 48.77687, "[McDo] 77 Pontault-Combault (C.Cial Carrefour) ( - -W)"
3.29522, 48.55154, "[McDo] 77 Provins (D- -W)"
2.67172, 48.55475, "[McDo] 77 Rubelles (D- -W)"
2.68472, 48.27719, "[McDo] 77 Saint Pierre-les-Nemours (D- -W)"
2.78248, 48.85494, "[McDo] 77 Serris (D- -W)"
2.62566, 48.94649, "[McDo] 77 Villeparisis (D- -W)"
2.84304, 48.36763, "[McDo] 77 Écuelles (D- -W)"
2.05719, 48.96036, "[McDo] 78 Achères ( - - )"
2.03479, 48.79869, "[McDo] 78 Bois-d'Arcy (D- -W)"
2.02953, 48.94314, "[McDo] 78 Carrières-sous-Poissy (D- -W)"
2.03434, 48.90890, "[McDo] 78 Chambourcy ( -K-W)"
1.92415, 48.74876, "[McDo] 78 Coignières (D- -W)"
2.07392, 48.98857, "[McDo] 78 Conflans-Sainte-Honorine (D- -W)"
1.86720, 48.96807, "[McDo] 78 Flins-sur-Seine (D- -W)"
1.59162, 49.03788, "[McDo] 78 Freneuse (D- -W)"
2.06028, 48.76991, "[McDo] 78 Guyancourt (D- -W)"
2.14853, 48.85935, "[McDo] 78 La Celle-Saint-Cloud ( - -W)"
2.11686, 48.82679, "[McDo] 78 Le Chesnay (C.Cial Parly II) ( -K-W)"
1.97607, 48.82806, "[McDo] 78 Les Clayes-sous-Bois (D-K-W)"
1.90823, 48.99737, "[McDo] 78 Les Mureaux (D- - )"
1.74886, 48.98972, "[McDo] 78 Limay (D- -W)"
1.71215, 48.98835, "[McDo] 78 Mantes-la-Jolie (Cinéma) ( - -W)"
1.69646, 48.97997, "[McDo] 78 Mantes-la-Ville (D-K-W)"
1.91879, 48.76016, "[McDo] 78 Maurepas (Pariwest) (D- -W)"
2.14531, 48.92917, "[McDo] 78 Montesson (C.Cial Carrefour) ( - -W)"
2.11515, 48.90534, "[McDo] 78 Montesson (Drive) (D- -W)"
2.04279, 48.78245, "[McDo] 78 Montigny-le-Bretonneux (C.Cial Espace St Quentin) ( -K-W)"
2.04101, 48.78382, "[McDo] 78 Montigny-le-Bretonneux (C.Cial SQY Ouest) ( - -W)"
1.99460, 48.92474, "[McDo] 78 Orgeval (D- -W)"
1.96406, 48.82648, "[McDo] 78 Plaisir (D- -W)"
2.04256, 48.92797, "[McDo] 78 Poissy ( - -W)"
2.08905, 48.89754, "[McDo] 78 Saint Germain-en-Laye ( - -W)"
2.17067, 48.93773, "[McDo] 78 Sartrouville (D- -W)"
2.13126, 48.80558, "[McDo] 78 Versailles (Foch) ( - -W)"
2.12858, 48.80057, "[McDo] 78 Versailles (Manèges) ( -K-W)"
2.21999, 48.77977, "[McDo] 78 Vélizy-Villacoublay (C.Cial Vélizy 2) ( -K-W)"
2.20736, 48.77913, "[McDo] 78 Vélizy-Villacoublay (Vélizy Europe) (D- -W)"
-0.47042, 46.84979, "[McDo] 79 Bressuire (D- -W)"
-0.47905, 46.31282, "[McDo] 79 Niort (D- -W)"
-0.41287, 46.33810, "[McDo] 79 Niort (Leclerc) (D- -W)"
-0.22377, 46.64911, "[McDo] 79 Parthenay (D- -W)"
-0.22286, 46.40807, "[McDo] 79 Saint Maixent-L'Ecole (D- -W)"
-0.19545, 46.98980, "[McDo] 79 Thouars (D- -W)"
1.85722, 50.10140, "[McDo] 80 Abbeville (D- -W)"
2.66904, 50.00895, "[McDo] 80 Albert (D- -W)"
2.30108, 49.89199, "[McDo] 80 Amiens (Centre-Ville) ( - -W)"
2.27755, 49.86246, "[McDo] 80 Amiens (Dury Drive) (D- -W)"
2.31879, 49.90735, "[McDo] 80 Amiens (Nord) (D- -W)"
2.37717, 49.86731, "[McDo] 80 Glisy (Amiens Glisy - C.Cial Géant) (D-K-W)"
1.40678, 50.06087, "[McDo] 80 Mers-les-Bains (D- -W)"
2.58916, 49.64694, "[McDo] 80 Montdidier (D- -W)"
2.93106, 49.94200, "[McDo] 80 Péronne (D- -W)"
2.77380, 49.70806, "[McDo] 80 Roye (Le Moulin) ( - -W)"
1.63793, 50.17404, "[McDo] 80 Saint Valery-sur-Somme (D- -W)"
2.11720, 43.91903, "[McDo] 81 Albi (D- -W)"
2.21797, 43.59250, "[McDo] 81 Castres (D- -W)"
1.88000, 43.89235, "[McDo] 81 Gaillac (D- -W)"
2.15512, 43.95481, "[McDo] 81 Lescure-d'Albigeois (D- -W)"
2.38611, 43.49861, "[McDo] 81 Mazamet (D- -W)"
1.09979, 44.05705, "[McDo] 82 Castelsarrasin (D- -W)"
1.52572, 44.15044, "[McDo] 82 Caussade (D- -W)"
1.37954, 44.03742, "[McDo] 82 Montauban (Aussone) (D- -W)"
1.33494, 43.98789, "[McDo] 82 Montauban (C.Cial Albasud) (D- -W)"
6.04929, 43.40834, "[McDo] 83 Brignoles (D- -W)"
6.75452, 43.60533, "[McDo] 83 Callian (D- -W)"
6.47100, 43.52943, "[McDo] 83 Draguignan (D- -W)"
6.73622, 43.42824, "[McDo] 83 Fréjus (D- -W)"
6.57674, 43.26181, "[McDo] 83 Gassin ( - -W)"
6.12861, 43.11917, "[McDo] 83 Hyères ( - -W)"
6.02248, 43.13827, "[McDo] 83 La Garde (C.Cial Grand Ciel) (D-K-W)"
6.01821, 43.14056, "[McDo] 83 La Garde (C.Cial Grand Var) ( - -W)"
6.03451, 43.13902, "[McDo] 83 La Garde (D- -W)"
5.85814, 43.10955, "[McDo] 83 La Seyne-sur-Mer (D- -W)"
6.00366, 43.13667, "[McDo] 83 La Valette-du-Var (D- -W)"
6.32327, 43.39306, "[McDo] 83 Le Luc-en-Provence (D- -W)"
6.03352, 43.10826, "[McDo] 83 Le Pradet (D- -W)"
5.88068, 43.12370, "[McDo] 83 Ollioules (D- -W)"
6.70250, 43.44470, "[McDo] 83 Puget-sur-Argens (D- -W)"
5.69600, 43.18090, "[McDo] 83 Saint Cyr-sur-Mer (D- -W)"
5.84946, 43.45511, "[McDo] 83 Saint Maximin-la-Sainte-Baume (D- -W)"
6.76618, 43.42299, "[McDo] 83 Saint Raphaël ( - -W)"
6.80417, 43.43111, "[McDo] 83 Saint Raphaël (Boulouris) (D- -W)"
6.63130, 43.31740, "[McDo] 83 Sainte Maxime (D- - )"
5.81611, 43.10528, "[McDo] 83 Six-Fours-les-Plages (D- -W)"
6.04551, 43.19930, "[McDo] 83 Solliès-Pont (D- -W)"
5.93665, 43.11932, "[McDo] 83 Toulon (C.Cial Mayol) ( - - )"
5.94810, 43.12072, "[McDo] 83 Toulon (Mal Juin) (D- -W)"
5.93207, 43.12512, "[McDo] 83 Toulon (Strasbourg) ( - - )"
6.47860, 43.51037, "[McDo] 83 Trans-en-Provence ( - -W)"
4.80588, 43.94708, "[McDo] 84 Avignon (Centre) ( - - )"
4.83650, 43.93975, "[McDo] 84 Avignon (Foncouverte) (D- - )"
4.75145, 44.28895, "[McDo] 84 Bollène (Porte de Provence) (D- -W)"
5.04020, 44.05040, "[McDo] 84 Carpentras (D- -W)"
5.03511, 43.82737, "[McDo] 84 Cavaillon (D- - )"
5.36660, 43.88710, "[McDo] 84 Gargas (D- - )"
5.06453, 43.93194, "[McDo] 84 L'Isle-sur-la-Sorgue (D- - )"
4.87892, 43.97895, "[McDo] 84 Le Pontet (C.Cial Avignon Nord) (D-K- )"
4.86045, 43.98310, "[McDo] 84 Le Pontet (RN7) (D- - )"
4.85830, 43.95110, "[McDo] 84 Le Pontet (Réalpanier) (D- -W)"
4.85867, 43.92221, "[McDo] 84 Montfavet (Avignon La Cristole) (D- -W)"
4.79930, 44.13595, "[McDo] 84 Orange (D- -W)"
5.50160, 43.68150, "[McDo] 84 Pertuis (D- -W)"
5.00690, 44.38640, "[McDo] 84 Valréas (D- -W)"
-1.59067, 46.73280, "[McDo] 85 Aizenay (D- -W)"
-1.33149, 46.97066, "[McDo] 85 Boufféré (C.Cial Super U) (D- -W)"
-1.89594, 46.85436, "[McDo] 85 Challans (D- - )"
-1.74680, 46.48830, "[McDo] 85 Château-d'Olonne (D- -W)"
-0.80579, 46.45238, "[McDo] 85 Fontenay-le-Comte (C.Cial Hyper U) (D- -W)"
-1.43059, 46.69850, "[McDo] 85 La Roche-sur-Yon (C.Cial Les Flaneries) (D-K-W)"
-1.43592, 46.64695, "[McDo] 85 La Roche-sur-Yon (Leclerc) (D- -W)"
-1.02570, 46.87468, "[McDo] 85 Les Herbiers (D- -W)"
-1.13510, 46.46131, "[McDo] 85 Luçon (D- -W)"
-1.91430, 46.69341, "[McDo] 85 Saint Gilles-Croix-de-Vie (D- -W)"
0.36306, 46.64611, "[McDo] 86 Chasseneuil-du-Poitou (D- -W)"
0.54650, 46.83923, "[McDo] 86 Chatellerault (D- -W)"
0.29960, 46.54781, "[McDo] 86 Poitiers (Croutelle) (D- -W)"
0.37130, 46.57303, "[McDo] 86 Poitiers (D- -W)"
1.11680, 45.79996, "[McDo] 87 Aixe-sur-Vienne (D- -W)"
1.30588, 45.78102, "[McDo] 87 Le Vigen (D- - )"
1.29051, 45.88042, "[McDo] 87 Limoges (Beaubreuil-C.Cial Cora) (D-K- )"
1.27309, 45.83318, "[McDo] 87 Limoges (Casseaux) (D-K- )"
1.24478, 45.84853, "[McDo] 87 Limoges (D- - )"
1.28184, 45.89475, "[McDo] 87 Limoges (Family Village) (D-K- )"
1.25762, 45.81159, "[McDo] 87 Limoges (Nexon) (D- - )"
0.92117, 45.89696, "[McDo] 87 Saint Junien (D- - )"
6.47583, 48.19722, "[McDo] 88 Epinal (Jeuxey) (D- -W)"
6.41869, 48.19122, "[McDo] 88 Golbey (Epinal Golbey) (D- -W)"
5.70694, 48.37056, "[McDo] 88 Neufchâteau (D- -W)"
6.96045, 48.27760, "[McDo] 88 Saint Dié-des-Vosges (D- - )"
6.93861, 48.29222, "[McDo] 88 Saint Dié-des-Vosges (Hellieule) (D- -W)"
6.61384, 48.01681, "[McDo] 88 Saint Etienne-lès-Remiremont (D- -W)"
3.56422, 47.81451, "[McDo] 89 Auxerre (Clairions) (D- -W)"
3.90780, 47.49966, "[McDo] 89 Avallon (D- -W)"
3.38002, 47.97878, "[McDo] 89 Joigny (D- -W)"
3.30452, 48.19342, "[McDo] 89 Sens (Champs Plaisants) (D- -W)"
3.27656, 48.20543, "[McDo] 89 Sens (D- -W)"
6.85887, 47.59953, "[McDo] 90 Andelnans (Belfort-Andelnans) (D- -W)"
6.91222, 47.64194, "[McDo] 90 Bessoncourt (D- -W)"
2.37185, 48.70925, "[McDo] 91 Athis-Mons (Drive) (D- -W)"
2.23010, 48.56845, "[McDo] 91 Avrainville (D- -W)"
2.53447, 48.68362, "[McDo] 91 Boussy-Saint-Antoine (D- -W)"
2.30235, 48.58771, "[McDo] 91 Brétigny-sur-Orge (D- -W)"
2.29912, 48.71590, "[McDo] 91 Chilly-Mazarin (D- -W)"
2.45567, 48.61418, "[McDo] 91 Corbeil-Essonnes (D- -W)"
2.33738, 48.66894, "[McDo] 91 Epinay-sur-Orge (D- -W)"
2.17096, 48.43363, "[McDo] 91 Etampes (D- -W)"
2.42788, 48.63045, "[McDo] 91 Evry (D- -W)"
2.37107, 48.62330, "[McDo] 91 Fleury-Mérogis (Francilienne) (D- -W)"
2.10586, 48.70220, "[McDo] 91 Gif-sur-Yvette (D- - )"
2.39363, 48.66945, "[McDo] 91 Grigny (D- -W)"
2.35103, 48.49943, "[McDo] 91 Itteville (D- -W)"
2.16981, 48.67756, "[McDo] 91 Les Ulis (C.Cial Ulis 2) ( - -W)"
2.27642, 48.72359, "[McDo] 91 Massy (C.Cial Cora) ( - -W)"
2.24110, 48.73000, "[McDo] 91 Massy (Le Pileu) (D- -W)"
2.44492, 48.56612, "[McDo] 91 Mennecy (Montvrain) (D- -W)"
2.44016, 48.71467, "[McDo] 91 Montgeron (C.Cial Valdoly) (D- - )"
2.27323, 48.65098, "[McDo] 91 Montlhéry (D- -W)"
2.33802, 48.69306, "[McDo] 91 Morangis (D- -W)"
2.49230, 48.63057, "[McDo] 91 Saint Germain-lès-Corbeil (D- -W)"
2.32046, 48.63859, "[McDo] 91 Saint Michel-sur-Orge (D- - )"
2.27675, 48.67095, "[McDo] 91 Saulx-les-Chartreux (Ville du Bois) (D- -W)"
2.41734, 48.69953, "[McDo] 91 Vigneux-sur-Seine (D- - )"
2.44364, 48.59541, "[McDo] 91 Villabé (Aire de repos A6) (D- -W)"
2.44769, 48.58470, "[McDo] 91 Villabé (C.Cial) ( - -W)"
2.25365, 48.70368, "[McDo] 91 Villebon-sur-Yvette (D- -W)"
2.20564, 48.68343, "[McDo] 91 Villejust (Courtaboeuf) (D- -W)"
2.37564, 48.66159, "[McDo] 91 Viry-Chatillon (Moulin de Viry) (D- -W)"
2.49648, 48.70759, "[McDo] 91 Yerres (D- -W)"
2.30119, 48.75416, "[McDo] 92 Antony ( -K-W)"
2.28518, 48.90681, "[McDo] 92 Asnières-sur-Seine (Centre) ( - -W)"
2.28229, 48.93155, "[McDo] 92 Asnières-sur-Seine (Stade) (D- -W)"
2.24348, 48.83388, "[McDo] 92 Boulogne-Billancourt ( -K-W)"
2.29502, 48.80805, "[McDo] 92 Châtillon (D- -W)"
2.25544, 48.78670, "[McDo] 92 Clamart (D- -W)"
2.30386, 48.90285, "[McDo] 92 Clichy (La Garenne) ( - -W)"
2.25440, 48.92330, "[McDo] 92 Colombes ( - -W)"
2.23428, 48.91088, "[McDo] 92 Colombes (BP) (D- -W)"
2.24884, 48.89606, "[McDo] 92 Courbevoie ( - -W)"
2.29165, 48.92486, "[McDo] 92 Gennevilliers (Carrefour) ( - -W)"
2.30450, 48.93860, "[McDo] 92 Gennevilliers (Gare) (D- -W)"
2.27850, 48.82690, "[McDo] 92 Issy-les-Moulineaux ( - -W)"
2.25175, 48.82063, "[McDo] 92 Issy-les-Moulineaux (Trois Moulins) ( - -W)"
2.23719, 48.89110, "[McDo] 92 La Défense (Le Dome-C.Cial 4 Temps-Niv.3) ( - -W)"
2.29081, 48.89145, "[McDo] 92 Levallois-Perret ( - -W)"
2.19483, 48.88523, "[McDo] 92 Nanterre (N13) (D- -W)"
2.22556, 48.90127, "[McDo] 92 Nanterre (Préfecture) (D- -W)"
2.27167, 48.88148, "[McDo] 92 Neuilly-sur-Seine ( - -W)"
2.23882, 48.88157, "[McDo] 92 Puteaux ( - -W)"
2.22718, 48.87036, "[McDo] 92 Suresnes ( - -W)"
2.20610, 48.82219, "[McDo] 92 Sèvres ( - -W)"
2.29918, 48.82436, "[McDo] 92 Vanves (Porte de Brancion) (D- -W)"
2.33279, 48.93445, "[McDo] 92 Villeneuve-la-Garenne ( - -W)"
2.38047, 48.91307, "[McDo] 93 Aubervilliers (Marché) (D- -W)"
2.48254, 48.93021, "[McDo] 93 Aulnay-sous-Bois (A3) (D- -W)"
2.47595, 48.95803, "[McDo] 93 Aulnay-sous-bois (C.Cial Parinor I) ( -K-W)"
2.41631, 48.86533, "[McDo] 93 Bagnolet (C.Cial Bel Est) ( -K-W)"
2.44822, 48.90656, "[McDo] 93 Bobigny (C.Cial Bobigny 2) ( - -W)"
2.41769, 48.91732, "[McDo] 93 Bobigny (Illustration) (D- -W)"
2.48944, 48.90750, "[McDo] 93 Bondy (D- -W)"
2.54944, 48.90500, "[McDo] 93 Clichy-sous-Bois (D- -W)"
2.32972, 48.95801, "[McDo] 93 Epinay-sur-Seine (Gare) (D- -W)"
2.39939, 48.93176, "[McDo] 93 La Courneuve (Carrefour du Chêne) (D- - )"
2.41822, 48.92831, "[McDo] 93 La Courneuve (D- -W)"
2.41605, 48.88000, "[McDo] 93 Les Lilas ( -K-W)"
2.55300, 48.92861, "[McDo] 93 Livry-Gargan (RN3) (D- -W)"
2.51797, 48.90802, "[McDo] 93 Livry-Gargan (République) ( - -W)"
2.54345, 48.83858, "[McDo] 93 Noisy-le-Grand (C.Cial Les Arcades) ( - -W)"
2.56151, 48.83444, "[McDo] 93 Noisy-le-Grand (Montfort) (D- -W)"
2.44424, 48.89210, "[McDo] 93 Noisy-le-Sec (D- -W)"
2.47387, 48.88540, "[McDo] 93 Rosny-sous-Bois (C.Cial Rosny II) (D-K-W)"
2.47459, 48.87741, "[McDo] 93 Rosny-sous-Bois (Golf) (D- -W)"
2.35640, 48.93836, "[McDo] 93 Saint Denis (Basilique) ( - -W)"
2.35200, 48.93686, "[McDo] 93 Saint Denis (République) ( - -W)"
2.36278, 48.92123, "[McDo] 93 Saint Denis (Stade de France) (D- -W)"
2.33185, 48.90613, "[McDo] 93 Saint Ouen ( - -W)"
2.52655, 48.93893, "[McDo] 93 Sevran (D- -W)"
2.37645, 48.94780, "[McDo] 93 Stains (St Léger) (D- - )"
2.56303, 48.95421, "[McDo] 93 Villepinte (Tremblay-en-France) (D- -W)"
2.32816, 48.81060, "[McDo] 94 Arcueil (C.Cial de la Vache Noire) ( - -W)"
2.48480, 48.76744, "[McDo] 94 Bonneuil-sur-Marne (D- -W)"
2.32071, 48.79237, "[McDo] 94 Cachan ( - -W)"
2.50892, 48.81451, "[McDo] 94 Champigny-sur-Marne (Jean Jaurès) ( - -W)"
2.41443, 48.82098, "[McDo] 94 Charenton-le-Pont ( - -W)"
2.39443, 48.82511, "[McDo] 94 Charenton-le-Pont (C.Cial Bercy 2) ( - -W)"
2.53446, 48.80537, "[McDo] 94 Chennevières-sur-Marne (D- -W)"
2.36742, 48.76276, "[McDo] 94 Chevilly-Larue (D- -W)"
2.39992, 48.77396, "[McDo] 94 Choisy-le-Roi (D- -W)"
2.45999, 48.78518, "[McDo] 94 Créteil (Centre) (D- -W)"
2.43607, 48.78519, "[McDo] 94 Créteil (RN6) (D- -W)"
2.45801, 48.78022, "[McDo] 94 Créteil (Soleil) ( -K-W)"
2.48596, 48.85434, "[McDo] 94 Fontenay-sous-Bois ( -K-W)"
2.39590, 48.81906, "[McDo] 94 Ivry-sur-Seine (C.Cial Grand Ciel) ( - -W)"
2.47599, 48.82016, "[McDo] 94 Joinville-le-Pont (D- -W)"
2.48714, 48.83805, "[McDo] 94 Nogent-sur-Marne ( - -W)"
2.41052, 48.74514, "[McDo] 94 Orly (Ville) (D- -W)"
2.55265, 48.79458, "[McDo] 94 Ormesson-sur-Marne (D- -W)"
2.34675, 48.75607, "[McDo] 94 Rungis (D- -W)"
2.47144, 48.80995, "[McDo] 94 Saint Maur-des-Fossés ( - -W)"
2.37268, 48.75606, "[McDo] 94 Thiais (Belle Epine) ( - -W)"
2.36991, 48.79199, "[McDo] 94 Villejuif (Maxime Gorki) (D- -W)"
2.43453, 48.72862, "[McDo] 94 Villeneuve-le-Roi (D- - )"
2.44295, 48.76175, "[McDo] 94 Villeneuve-Saint-Georges (D- -W)"
2.43685, 48.84721, "[McDo] 94 Vincennes ( - -W)"
2.41251, 48.79545, "[McDo] 94 Vitry-sur-Seine (Leclerc) (D- -W)"
2.25225, 48.94500, "[McDo] 95 Argenteuil ( - -W)"
2.20650, 48.94851, "[McDo] 95 Argenteuil (Les Indes) (D- -W)"
2.21860, 48.92281, "[McDo] 95 Bezons (Pont de Bezons) (D- -W)"
2.07896, 49.03868, "[McDo] 95 Cergy (C.Cial 3 Fontaines) ( - - )"
2.08240, 49.03908, "[McDo] 95 Cergy (Cergy Pontoise Kiosque-C.Cial 3 fontaines) ( - -W)"
2.07202, 49.04224, "[McDo] 95 Cergy (Pontoise) (D- -W)"
2.30675, 48.97051, "[McDo] 95 Enghien-les-Bains ( - -W)"
2.09493, 49.01837, "[McDo] 95 Eragny-sur-Oise (D- -W)"
2.39973, 48.96194, "[McDo] 95 Garges-les-Gonesses (D- -W)"
2.43370, 48.99100, "[McDo] 95 Gonesse (D- -W)"
2.46621, 49.02099, "[McDo] 95 Goussainville (D- -W)"
2.24864, 49.12520, "[McDo] 95 L'Isle-Adam (D- -W)"
1.80080, 49.14609, "[McDo] 95 Magny-en-Vexin (D- -W)"
2.33960, 49.04248, "[McDo] 95 Moisselles (D- -W)"
2.19272, 48.99558, "[McDo] 95 Montigny-les-Cormeilles (D- -W)"
2.14202, 49.02295, "[McDo] 95 Pierrelaye (D- -W)"
2.02444, 49.05490, "[McDo] 95 Puiseux-Pontoise (D- -W)"
2.54128, 49.01463, "[McDo] 95 Roissy-en-France (Aéroport CDG Term.1) ( - - )"
2.56426, 49.00315, "[McDo] 95 Roissy-en-France (Aéroport CDG Term.2A) ( - -W)"
2.56432, 49.00410, "[McDo] 95 Roissy-en-France (Aéroport CDG Term.2B) ( - -W)"
2.49720, 48.97743, "[McDo] 95 Roissy-en-France (C.Cial Paris Nord 2) (D- -W)"
2.35114, 49.00805, "[McDo] 95 Saint Brice-sous-Forêt (D- -W)"
2.28993, 48.96348, "[McDo] 95 Saint Gratien (D- -W)"
2.12158, 49.03577, "[McDo] 95 Saint Ouen-l'Aumone (D- -W)"
2.55426, 49.08849, "[McDo] 95 Saint Witz (D- -W)"
2.25556, 48.96463, "[McDo] 95 Sannois (C.Cial Carrefour) ( - -W)"
2.36590, 48.97580, "[McDo] 95 Sarcelles (Pierrefitte) (D- - )"
2.28977, 48.99097, "[McDo] 95 Soisy-sous-Montmorency ( - -W)"
2.22071, 49.01569, "[McDo] 95 Taverny (D-K-W)"
2.39209, 49.00042, "[McDo] 95 Villiers-le-Bel (D- -W)"
7.41724, 43.73105, "[McDo] MC Monaco ( -K- )"
